lat,lng,zip,desc,title,timeStamp,twp,addr,e
5.6358281,-0.1613592,233,"East Legon, Accra, Ghana,12/10/2015@15:20",EMS: BACK PAINS/INJURY,10/12/2015 15:20,Accra,east legon,1
5.6443691,-0.185427,233,"Noguchie Link, Accra, Ghana,12/10/2015@17:35",EMS: DIABETIC EMERGENCY,10/12/2015 17:35,Accra,vikings hostel,1
5.63394,-0.1740815,233,"Shiashie, Accra, Ghana,12/10/2015@14:39",Fire: GAS-ODOR/LEAK,10/12/2015 14:39,Accra,shiashie,1
5.6510376,-0.1354586,233,"Adjiringanor, Madina, Ghana,12/10/2015@16:47",EMS: CARDIAC EMERGENCY,10/12/2015 16:47,Madina,adjiringanor,1
5.6522021,-0.1881066,233,"W.E.B. Dubois Rd, Accra, Ghana,12/10/2015@16:56",EMS: DIZZINESS,10/12/2015 16:56,Accra,university of ghana computing systems,1
5.651687,-0.189828,233,"J.K.M. Hodasi Rd, Accra, Ghana,12/10/2015@15:39",EMS: HEAD INJURY,10/12/2015 15:39,Accra,volta hall,1
5.6499527,-0.1884151,233,"MR27+2QQ, Doutor J. B. Danquah Avenue, Accra, Ghana,12/10/2015@16:46",EMS: NAUSEA/VOMITING,10/12/2015 16:46,Accra,legon hall,1
5.6504233,-0.1857034,233,"Doutor J. B. Danquah Avenue, Accra, Ghana,12/10/2015@16:17",EMS: RESPIRATORY EMERGENCY,10/12/2015 16:17,Accra,akuafo hall,1
5.6517352,-0.1870479,233,"Doutor J. B. Danquah Avenue, Accra, Ghana,12/10/2015@16:51",EMS: SYNCOPAL EPISODE,10/12/2015 16:51,Accra,balme library,1
5.6585107,-0.1677337,233,"Accra, Ghana,12/10/2015@17:35",Traffic: VEHICLE ACCIDENT -,10/12/2015 17:35,Accra,ideal college ghana,1
5.6559482,-0.1670423,233,"Trinity Ave, Accra, Ghana,12/10/2015@17:33",Traffic: VEHICLE ACCIDENT -,10/12/2015 17:33,Accra,first love center,1
5.6589503,-0.1627447,233,"MR5P+HWJ, Accra, Ghana,12/10/2015@16:32",Traffic: VEHICLE ACCIDENT -,10/12/2015 16:32,Accra,accra college of education,1
5.6533233,-0.1789251,233,"University of Ghana, Legon Boundary, Accra, Ghana,12/10/2015@17:15",Traffic: VEHICLE ACCIDENT -,10/12/2015 17:15,Accra,legon city mall,1
5.5700249,-0.2122824,233,"Ring Road Central, Accra, Ghana,12/10/2015@17:12",Traffic: VEHICLE ACCIDENT -,10/12/2015 17:12,Accra,ernest chemists,1
5.6459098,-0.1790534,233,"N4, Accra, Ghana,12/10/2015@17:09",Traffic: VEHICLE ACCIDENT -,10/12/2015 17:09,Accra,Adenta pharmacy,1
5.6414224,-0.1758815,233,"La-Bawaleshi Rd, Accra, Ghana,12/10/2015@17:31",Traffic: VEHICLE ACCIDENT -,10/12/2015 17:31,Accra,okponglo car wash,1
5.6397935,-0.17815,233,"Okponglo Bus Stop, Legon E Rd, Accra, Ghana,12/10/2015@17:42",EMS: RESPIRATORY EMERGENCY,10/12/2015 17:42,Accra,okponglo,1
5.8511836,-0.1729106,233,"Aburi, Ghana,12/10/2015@17:41",EMS: DIZZINESS,10/12/2015 17:41,Aburi,Aburi,1
5.1931065,-1.0957418,233,"Abandze, Ghana,12/10/2015@17:43",EMS: VEHICLE ACCIDENT,10/12/2015 17:43,Abandze,Abandze,1
5.612781,-0.234345,233,"Achimota, Ghana,12/10/2015@17:45",Traffic: DISABLED VEHICLE -,10/12/2015 17:45,Achimota,Achimota,1
5.700273,-0.302078,233,"Pokoasi, Ghana,12/10/2015@17:43",Traffic: VEHICLE ACCIDENT -,10/12/2015 17:43,,pokuase,1
5.7062137,-0.3019281,233,"Amasaman, Ghana,12/10/2015@17:53",Traffic: DISABLED VEHICLE -,10/12/2015 17:53,Amasaman,amasaman,1
5.607226,-0.258605,233,"Tabora, Tanzania,12/10/2015@17:59",Fire: APPLIANCE FIRE,10/12/2015 17:59,Tabora,tabora,1
5.8607314,-0.6676865,233,"Asamankese, Ghana,12/10/2015@18:00",Traffic: DISABLED VEHICLE -,10/12/2015 18:00,Asamankese,asamankese,1
5.6376136,-0.1266064,233,"Spintex Road, Accra, Ghana,12/10/2015@17:58",Traffic: VEHICLE ACCIDENT -,10/12/2015 17:58,Accra,spintex,1
5.5754558,-0.2742955,233,"Sakaman Bus Stop, Accra, Ghana,12/10/2015@18:02",EMS: GENERAL WEAKNESS,10/12/2015 18:02,Accra,sakaman,1
5.7,-0.4252737,233,"Kasoa, Ghana,12/10/2015@18:02",EMS: HEAD INJURY,10/12/2015 18:02,Kasoa,kasoa,1
6.7447067,-1.6044059,233,"Tafo, Kumasi, Ghana,12/10/2015@18:05",Fire: CARBON MONOXIDE DETECTOR,10/12/2015 18:05,Kumasi,tafo,1
5.5666403,-0.3334778,233,"Weija, Ghana,12/10/2015@18:05",Traffic: VEHICLE ACCIDENT -,10/12/2015 18:05,Weija,weija,1
5.7,-0.3,233,"Amasaman, Ghana,12/10/2015@18:10",Traffic: DISABLED VEHICLE -,10/12/2015 18:10,Avon,amasaman,1
6.8058848,-1.5353893,233,"Aboaso, Ghana,12/10/2015@18:07",Traffic: VEHICLE ACCIDENT -,10/12/2015 18:07,Aboaso,Aboaso,1
7.1354022,-1.7319828,233,"Abofour, Ghana,12/10/2015@18:09",EMS: RESPIRATORY EMERGENCY,10/12/2015 18:09,Abofour,Abofour,1
6.7559282,-1.6799196,233,"Abrepo Rd, Ghana,12/10/2015@18:17",EMS: UNKNOWN MEDICAL EMERGENCY,10/12/2015 18:17,,Abrepo,1
6.2980575,-1.8369139,233,"Abuakwa, Ghana,12/10/2015@18:21",Traffic: VEHICLE ACCIDENT -,10/12/2015 18:21,Abuakwa,Abuakwa Ashanti,1
6.1720193,-1.4241426,233,"Adansi Asokwa, Ghana,12/10/2015@18:23",Traffic: DISABLED VEHICLE -,10/12/2015 18:23,,Adansi Asokwa,1
6.812697,-1.4756031,233,"Adanwomase, Ghana,12/10/2015@18:20",Traffic: DISABLED VEHICLE -,10/12/2015 18:20,Adanwomase,Adanwomase,1
6.8784526,-1.8525626,233,"Adugyama, Ghana,12/10/2015@18:23",Traffic: VEHICLE ACCIDENT -,10/12/2015 18:23,Adugyama,Adugyama,1
6.816667,-1.616667,233,"Aduman, Ghana,12/10/2015@18:29",EMS: VEHICLE ACCIDENT,10/12/2015 18:29,Aduman,Aduman,1
7.4148895,-1.9661369,233,"Afrancho, Ghana,12/10/2015@18:30",Traffic: VEHICLE ACCIDENT -,10/12/2015 18:30,Afrancho,Afrancho,1
6.7990626,-1.0849592,233,"Agogo, Ghana,12/10/2015@18:32",Fire: GAS-ODOR/LEAK,10/12/2015 18:32,Agogo,"Agogo, Ghana",1
6.9347027,-1.4869856,233,"Agona, Ghana,12/10/2015@18:38",EMS: UNRESPONSIVE SUBJECT,10/12/2015 18:38,Agona,Agona,1
6.4136904,-1.8788063,233,"Agroyesum, Ghana,12/10/2015@18:37",Traffic: VEHICLE ACCIDENT -,10/12/2015 18:37,Agroyesum,Agroyesum,1
6.1183238,-1.6663523,233,"Amankyim, Ghana,12/10/2015@18:43",EMS: CARDIAC EMERGENCY,10/12/2015 18:43,Amankyim,Akrofuom,1
6.2961727,-1.6250803,233,"Akrokerri, Ghana,12/10/2015@18:47",Traffic: VEHICLE ACCIDENT -,10/12/2015 18:47,Akrokerri,Akrokerri,1
7.3960321,-1.9539106,233,"Akumadan, Ghana,12/10/2015@18:50",EMS: VEHICLE ACCIDENT,10/12/2015 18:50,Akumadan,Akumadan,1
6.6798051,-1.6039047,233,"Amakom, Kumasi, Ghana,12/10/2015@18:50",Fire: VEHICLE ACCIDENT,10/12/2015 18:50,Kumasi,Amakom,1
6.7743075,-1.4943339,233,"Antoa, Ghana,12/10/2015@18:51",Traffic: VEHICLE ACCIDENT -,10/12/2015 18:51,Antoa,Antoa,1
6.4650469,-1.6360014,233,"Anwia Nkwanta, Ghana,12/10/2015@18:51",Traffic: VEHICLE ACCIDENT -,10/12/2015 18:51,Anwia Nkwanta,Anwia-Nkwanta,1
6.6883018,-1.6187039,233,"Asafo, Kumasi, Ghana,12/10/2015@18:59",EMS: ALTERED MENTAL STATUS,10/12/2015 18:59,Kumasi,Asafo Kumasi,1
5.9050395,-1.5082729,233,"Asamang, Ghana,12/10/2015@18:56",Fire: FIRE ALARM,10/12/2015 18:56,Asamang,Asamang,1
6.605282,-1.0454469,233,"Asankare, Ghana,12/10/2015@19:06",Traffic: VEHICLE ACCIDENT -,10/12/2015 19:06,Asankare,Asankare,1
6.4279761,-1.3330645,233,"Asiwa, Ghana,12/10/2015@19:07",EMS: CVA/STROKE,10/12/2015 19:07,Asiwa,Asiwa,1
6.1157292,-0.2718018,233,"Asokore, Koforidua, Ghana,12/10/2015@19:09",Fire: FIRE ALARM,10/12/2015 19:09,Koforidua,Asokore,1
6.7174915,-1.5620347,233,"Asokore Mampong, Kumasi, Ghana,12/10/2015@19:08",Traffic: ROAD OBSTRUCTION -,10/12/2015 19:08,Kumasi,Asokore Mampong,1
6.8326718,-1.5001704,233,"Asonomaso, Ghana,12/10/2015@19:18",EMS: UNKNOWN MEDICAL EMERGENCY,10/12/2015 19:18,Asonomaso,Asonomaso,1
5.8686366,-0.5754294,233,"Atimatim, Ghana,12/10/2015@19:12",EMS: CVA/STROKE,10/12/2015 19:12,Atimatim,Atimatim,1
6.8481245,-1.7198215,233,"Barekese, Ghana,12/10/2015@19:15",EMS: SUBJECT IN PAIN,10/12/2015 19:15,Barekese,Barekese,1
6.4532257,-1.5838477,233,"Bekwai, Ghana,12/10/2015@19:17",EMS: SUBJECT IN PAIN,10/12/2015 19:17,Bekwai,Bekwai,1
6.4553249,-1.3119816,233,"Beposo, Ghana,12/10/2015@19:19",Traffic: DISABLED VEHICLE -,10/12/2015 19:19,Beposo,Beposo,1
6.8313792,-1.5196521,233,"Ntonso, Ghana,12/10/2015@19:25",Traffic: DISABLED VEHICLE -,10/12/2015 19:25,Ntonso,Bobiri,1
6.2838863,-1.4194307,233,"Bodwesango, Ghana,12/10/2015@19:06",Traffic: VEHICLE ACCIDENT -,10/12/2015 19:06,Bodwesango,Bodwesango,1
6.6253012,-1.0592364,233,"Bompata, Ghana,12/10/2015@19:23",EMS: HEMORRHAGING,10/12/2015 19:23,Bompata,Bompata,1
5.8998853,-1.4257287,233,"Bremang, Ghana,12/10/2015@19:25",EMS: UNKNOWN MEDICAL EMERGENCY,10/12/2015 19:25,Bremang,Bremang,1
6.2891773,-0.4679299,233,"Bunso, Ghana,12/10/2015@19:22",EMS: FALL VICTIM,10/12/2015 19:22,Bunso,"Bunso, Ghana",1
6.8821943,-1.3658075,233,"Dadease, Ghana,12/10/2015@19:21",EMS: RESPIRATORY EMERGENCY,10/12/2015 19:21,Dadease,Dadease,1
6.5545551,-1.0452545,233,"Dampong, Ghana,12/10/2015@19:35",EMS: ASSAULT VICTIM,10/12/2015 19:35,Dampong,Dampong,1
6.1989753,-1.6839666,233,"Dominase, Ghana,12/10/2015@19:38",EMS: FALL VICTIM,10/12/2015 19:38,Dominase,Dominase,1
6.3123906,-1.5329678,233,"Dompoase, Ghana,12/10/2015@19:43",EMS: RESPIRATORY EMERGENCY,10/12/2015 19:43,Dompoase,Dompoase,1
5.7348119,0.0302354,233,"Tema, Ghana,12/10/2015@19:49",EMS: SUBJECT IN PAIN,10/12/2015 19:49,Tema,Tema,1
6.2012073,-1.6912512,233,"Obuasi, Ghana,12/10/2015@19:54",EMS: SEIZURES,10/12/2015 19:54,Obuasi,obuasi,1
10.0601,2.5099,233,"wa,ghana,12/10/2015@20:01",Fire: GAS-ODOR/LEAK,10/12/2015 20:01,,Wa,1
7.5908801,-1.9343555,233,"Techiman, Ghana,12/10/2015@20:05",EMS: DIABETIC EMERGENCY,10/12/2015 20:05,Techiman,Techiman,1
4.9015794,-1.7830973,233,"Takoradi, Ghana,12/10/2015@20:10",EMS: SUBJECT IN PAIN,10/12/2015 20:10,Takoradi,Takoradi,1
5.5298168,-0.705779,233,"Agona Swedru, Ghana,12/10/2015@20:09",EMS: UNKNOWN MEDICAL EMERGENCY,10/12/2015 20:09,Agona Swedru,Agona Swedru,1
5.6931346,-0.0326531,233,"Ashaiman, Tema, Ghana,12/10/2015@20:06",EMS: HEAD INJURY,10/12/2015 20:06,Tema,Ashaiman,1
7.3847202,-1.3589807,233,"Ejura, Ghana,12/10/2015@20:07",Traffic: VEHICLE ACCIDENT -,10/12/2015 20:07,Ejura,Ejura,1
5.819453,-0.3513021,233,"Nsawam, Ghana,12/10/2015@20:24",Traffic: DISABLED VEHICLE -,10/12/2015 20:24,Nsawam,Nsawam,1
5.6731,0.1664,233,"Madina, Ghana,12/10/2015@20:26",EMS: FALL VICTIM,10/12/2015 20:26,Medina,Madina,1
5.5831665,-0.1046082,233,"Teshie, Accra, Ghana,12/10/2015@20:26",EMS: FALL VICTIM,10/12/2015 20:26,Accra,Teshie,1
5.6149107,-0.0484066,233,"Sakumono, Ghana,12/10/2015@20:36",Traffic: VEHICLE ACCIDENT -,10/12/2015 20:36,Sakumono,Sakumono,1
5.5427477,-0.2565425,233,"Dansoman, Accra, Ghana,12/10/2015@20:45",EMS: SYNCOPAL EPISODE,10/12/2015 20:45,Accra,Dansoman,1
5.5905595,-0.2502697,233,"Darkuman, Ghana,12/10/2015@20:43",Fire: CARBON MONOXIDE DETECTOR,10/12/2015 20:43,Darkuman,Darkuman,1
5.576118,-0.2444038,233,"Kaneshie, Accra, Ghana,12/10/2015@20:50",EMS: MEDICAL ALERT ALARM,10/12/2015 20:50,Accra,Kaneshie,1
5.5484014,-0.2123034,233,"Kantamanto Market, Accra, Ghana,12/10/2015@20:49",EMS: RESPIRATORY EMERGENCY,10/12/2015 20:49,Accra,Kantamanto,1
5.6037168,-0.1869644,233,"Accra, Ghana,12/10/2015@20:53",EMS: ABDOMINAL PAINS,10/12/2015 20:53,Accra,Accra Central,1
6.3916263,-0.3795438,233,"Begoro, Ghana,12/10/2015@21:01",Fire: FIRE ALARM,10/12/2015 21:01,Begoro,Begoro,1
5.5886053,-0.1840867,233,"Liberation Road, Accra, Ghana,12/10/2015@21:10",EMS: RESPIRATORY EMERGENCY,10/12/2015 21:10,Accra,37 military,1
6.9111632,-1.2770675,233,"Kumawu, Ghana,12/10/2015@21:12",EMS: UNRESPONSIVE SUBJECT,10/12/2015 21:12,Kumawu,kumawu,1
7.1518505,0.4738293,233,"Hohoe, Ghana,12/10/2015@21:19",Traffic: ROAD OBSTRUCTION -,10/12/2015 21:19,Hohoe,hohoe,1
5.13151,-1.2794744,233,"Cape Coast, Ghana,12/10/2015@21:24",Fire: PUMP DETAIL,10/12/2015 21:24,Cape Coast,cape coast,1
10.7875419,-0.8579818,233,"Bolgatanga, Ghana,12/10/2015@21:31",Traffic: VEHICLE ACCIDENT -,10/12/2015 21:31,Bolgatanga,bolgatanga,1
5.9295558,-0.9725085,233,"Akim Oda, Ghana,12/10/2015@21:36",Fire: FIRE INVESTIGATION,10/12/2015 21:36,Akim Oda,Akim Oda,1
5.6731273,-0.1663851,233,"Madina, Ghana,12/10/2015@21:31",Traffic: VEHICLE ACCIDENT -,10/12/2015 21:31,Madina,Medina Estates,1
6.0412609,-0.4549542,233,"Suhum, Ghana,12/10/2015@21:47",Traffic: DISABLED VEHICLE -,10/12/2015 21:47,Suhum,Suhum,1
6.6249454,-1.2073261,233,"Konongo, Ghana,12/10/2015@21:56",Traffic: DISABLED VEHICLE -,10/12/2015 21:56,Konongo,Konongo,1
5.5773983,-0.3136781,233,"Gbawe, Ghana,12/10/2015@21:58",Traffic: VEHICLE ACCIDENT -,10/12/2015 21:58,Gbawe,Gbawe,1
7.4576765,-2.5842062,233,"Berekum, Ghana,12/10/2015@22:03",EMS: CVA/STROKE,10/12/2015 22:03,Berekum,Berekum,1
11.0541118,-0.2385387,233,"Bawku, Ghana,12/10/2015@22:24",EMS: FALL VICTIM,10/12/2015 22:24,Bawku,Bawku,1
8.0592612,-1.7295503,233,"Kintampo, Ghana,12/10/2015@22:22",EMS: SEIZURES,10/12/2015 22:22,Kintampo,Kintampo,1
7.053137,-1.3999969,233,"Mampong, Ghana,12/10/2015@22:29",EMS: CARDIAC EMERGENCY,10/12/2015 22:29,Mampong,Mampong,1
5.4373199,-2.1401139,233,"Prestea, Ghana,12/10/2015@22:27",EMS: OVERDOSE,10/12/2015 22:27,Prestea,Prestea,1
5.6060955,-0.1681235,233,"Kotoka International Airport, Airport Rd, Accra, Ghana,12/10/2015@22:35",Fire: FIRE ALARM,10/12/2015 22:35,Accra,Kotoka International Airport,1
6.2990848,-1.5402327,233,"Adansi North, Ghana,12/10/2015@22:41",Traffic: VEHICLE ACCIDENT -,10/12/2015 22:41,,adansi north,1
6.0239681,-1.3276422,233,"Adansi South, Ghana,12/10/2015@22:54",EMS: FALL VICTIM,10/12/2015 22:54,,adansi south,1
6.8538357,-1.6178011,233,"Afigya Kwabre South, Ghana,12/10/2015@22:52",Fire: GAS-ODOR/LEAK,10/12/2015 22:52,,Afigya-Kwabre,1
6.8726796,-2.2630393,233,"Ahafo Ano North, Ghana,12/10/2015@22:55",EMS: ABDOMINAL PAINS,10/12/2015 22:55,,Ahafo Ano North,1
6.9595463,-2.027319,233,"Ahafo Ano South, Ghana,12/10/2015@23:01",Fire: FIRE ALARM,10/12/2015 23:01,,Ahafo Ano south,1
6.2770367,-1.7928402,233,"Amansie Central, Ghana,12/10/2015@23:02",Traffic: DISABLED VEHICLE -,10/12/2015 23:02,,Amasie Central,1
6.4491712,-1.09694,233,"Asante Akim South, Ghana,12/10/2015@23:10",EMS: SUBJECT IN PAIN,10/12/2015 23:10,,Asante Akim South,1
6.5968323,-1.6955092,233,"Atwima Kwanwoma, Ghana,12/10/2015@23:06",EMS: RESPIRATORY EMERGENCY,10/12/2015 23:06,,Atwima Kwanwoma,1
6.7150806,-1.5091172,233,"Ejisu, Ghana,12/10/2015@23:16",EMS: NAUSEA/VOMITING,10/12/2015 23:16,Ejisu,ejisu,1
6.7873581,-1.4652217,233,"Juaben, Ghana,12/10/2015@23:32",EMS: ABDOMINAL PAINS,10/12/2015 23:32,Juaben,juaben,1
7.0467182,-1.714958,233,"Offinso Municipal, Ghana,12/10/2015@23:45",Traffic: DISABLED VEHICLE -,10/12/2015 23:45,,offinso,1
6.8538357,-1.6178011,233,"Afigya Kwabre South, Ghana,12/10/2015@23:58",EMS: CARDIAC EMERGENCY,10/12/2015 23:58,,Kwabre,1
6.659517,-2.0665197,233,"Atwima Mponua, Ghana,12/11/2015@00:01",EMS: RESPIRATORY EMERGENCY,11/12/2015 0:01,,Atwima Mponua,1
6.5336974,-1.4048249,233,"Bosomtwe, Ghana,12/11/2015@00:36",EMS: MATERNITY,11/12/2015 0:36,,Atwima Nwabiagya,1
6.2996161,-1.3469247,233,"Bosome Freho, Ghana,12/11/2015@00:55",EMS: HEAD INJURY,11/12/2015 0:55,,Bosome Freho,1
6.5016785,-1.4144827,233,"Lake Bosomtwe, Ghana,12/11/2015@01:05",EMS: UNCONSCIOUS SUBJECT,11/12/2015 1:05,,Bosomtwe,1
7.3847202,-1.3589807,233,"Ejura, Ghana,12/11/2015@01:14",EMS: SUBJECT IN PAIN,11/12/2015 1:14,Ejura,Ejura Sekyedumase,1
7.3261071,-1.8903882,233,"Offinso North, Ghana,12/11/2015@01:15",Traffic: DISABLED VEHICLE -,11/12/2015 1:15,,Offinso North,1
7.2206428,-1.1736994,233,"Sekyere Central, Ghana,12/11/2015@01:29",EMS: NAUSEA/VOMITING,11/12/2015 1:29,,Sekyere Central,1
6.7690649,-1.3083685,233,"Sekyere East, Ghana,12/11/2015@02:00",EMS: HEMORRHAGING,11/12/2015 2:00,,Sekyere East,1
7.0469952,-1.637215,233,"Afigya-Sekyere, Ghana,12/11/2015@02:10",EMS: DIZZINESS,11/12/2015 2:10,,Sekyere South,1
6.5294782,-2.4999918,233,"Asunafo South, Ghana,12/11/2015@02:26",Fire: FIRE ALARM,11/12/2015 2:26,,Asunafo South,1
6.9577082,-2.4208713,233,"Asutifi, Ghana,12/11/2015@02:34",Traffic: VEHICLE ACCIDENT -,11/12/2015 2:34,,Asutifi,1
7.6971099,-0.9820668,233,"Atebubu-Amantin, Ghana,12/11/2015@03:02",EMS: RESPIRATORY EMERGENCY,11/12/2015 3:02,,Atebubu Amantin,1
7.2144503,-2.6586401,233,"Dormaa East, Ghana,12/11/2015@03:09",EMS: RESPIRATORY EMERGENCY,11/12/2015 3:09,,Dormaa East ,1
7.9072974,-2.6586401,233,"Jaman North, Ghana,12/11/2015@03:15",EMS: HEMORRHAGING,11/12/2015 3:15,,Jaman North,1
7.645665,-2.8178291,233,"Jaman South, Ghana,12/11/2015@03:16",EMS: FALL VICTIM,11/12/2015 3:16,,Jaman South,1
7.9118841,-1.7928402,233,"Kintampo South, Ghana,12/11/2015@03:27",Fire: FIRE ALARM,11/12/2015 3:27,,Kintampo South,1
7.6952677,-1.5983959,233,"Nkoranza North, Ghana,12/11/2015@03:50",EMS: CHOKING,11/12/2015 3:50,,Nkoranza North ,1
7.6952677,-1.5983959,233,"Nkoranza, Ghana,12/11/2015@03:47",EMS: LACERATIONS,11/12/2015 3:47,,Nkorana South,1
7.4752384,-2.341887,233,"Sunyani West, Ghana,12/11/2015@03:47",EMS: LACERATIONS,11/12/2015 3:47,,Sunyani West,1
8.0396604,-2.3813621,233,"Tain,brong Ahafo region, UK,12/11/2015@03:59",EMS: HEAD INJURY,11/12/2015 3:59,Tain,Tain,1
7.2169497,-2.1843285,233,"Tano North Municipal, Ghana,12/11/2015@04:05",EMS: MEDICAL ALERT ALARM,11/12/2015 4:05,,Tano North,1
7.2176693,-2.027319,233,"Tano South, Ghana,12/11/2015@04:11",EMS: HEAD INJURY,11/12/2015 4:11,,Tano South,1
5.2882034,-1.1839114,233,"Abura Asebu Kwamankese, Ghana,12/11/2015@04:19",Fire: FIRE ALARM,11/12/2015 4:19,Portland,Abura,1
5.2882034,-1.1929114,233,"Abura Asebu Kwamankese, Ghana,12/11/2015@04:31",Fire: CARBON MONOXIDE DETECTOR,11/12/2015 4:31,,Kwamankese,1
5.2060156,-1.1700982,233,"Asebu, Ghana,12/11/2015@04:38",Fire: FIRE ALARM,11/12/2015 4:38,Asebu,Asebu,1
5.6033998,-0.6393702,233,"Agona East, Ghana,12/11/2015@04:36",Fire: TRASH/DUMPSTER FIRE,11/12/2015 4:36,,Agona East,1
5.4639495,-0.9366845,233,"Ajumako, Ghana,12/11/2015@05:19",Traffic: VEHICLE ACCIDENT -,11/12/2015 5:19,Ajumako,Ajumako,1
5.4639495,-0.9366845,233,"Ajumako, Ghana,12/11/2015@05:20",Traffic: DISABLED VEHICLE -,11/12/2015 5:20,Ajumako,Enyan,1
5.4639495,-0.9366845,233,"Ajumako, Ghana,12/11/2015@05:19",Traffic: VEHICLE ACCIDENT -,11/12/2015 5:19,Ajumako,Essiam,1
5.5829384,-0.9931477,233,"Asikuma, Ghana,12/11/2015@05:27",Fire: VEHICLE ACCIDENT,11/12/2015 5:27,Asikuma,Asikuma,1
5.6332567,-0.883527,233,"Odoben, Ghana,12/11/2015@05:55",Fire: FIRE ALARM,11/12/2015 5:55,Odoben,Odoben,1
5.7054475,-0.989237,233,"Brakwa, Ghana,12/11/2015@06:01",EMS: RESPIRATORY EMERGENCY,11/12/2015 6:01,Brakwa,Brakwa,1
5.5184327,-1.2506002,233,"Assin South, Ghana,12/11/2015@06:05",EMS: DIZZINESS,11/12/2015 6:05,,Assin South,1
5.6665762,-0.5446912,233,"Awutu Senya, Ghana,12/11/2015@06:16",EMS: RESPIRATORY EMERGENCY,11/12/2015 6:16,,Awutu Senya,1
5.4762359,-0.4209277,233,"Gomoa East, Kasoa, Ghana,12/11/2015@06:19",EMS: MEDICAL ALERT ALARM,11/12/2015 6:19,Kasoa,Gomoa East,1
5.4564953,-0.6204165,233,"Gomoa, Ghana,12/11/2015@06:17",Traffic: VEHICLE ACCIDENT -,11/12/2015 6:17,,Gomoa West,1
5.3713676,-1.4241426,233,"Twifo Hemang Lower Denkyira, Ghana,12/11/2015@06:23",EMS: FALL VICTIM,11/12/2015 6:23,,Twifo,1
5.3713676,-1.4241426,233,"Twifo Hemang Lower Denkyira, Ghana,12/11/2015@06:27",EMS: GENERAL WEAKNESS,11/12/2015 6:27,,Lower Denkyira,1
6.190981,-2.1057549,233,"Upper Denkyira West, Ghana,12/11/2015@06:34",Traffic: DISABLED VEHICLE -,11/12/2015 6:34,,Upper Denkyira West,1
5.2047399,-1.1544963,233,"Mfantsiman, Ghana,12/11/2015@06:38",EMS: ABDOMINAL PAINS,11/12/2015 6:38,,Mfatseman,1
5.5195405,-0.4879916,233,"Awutu-Effutu-Senya, Ghana,12/11/2015@06:55",EMS: MEDICAL ALERT ALARM,11/12/2015 6:55,,Effutu,1
5.9620725,-0.2057108,233,"Akwapem North, Ghana,12/11/2015@07:04",Traffic: VEHICLE ACCIDENT -,11/12/2015 7:04,,Akuapim North,1
6.7059576,-0.7913227,233,"Kwahu East, Ghana,12/11/2015@07:09",Traffic: DISABLED VEHICLE -,11/12/2015 7:09,,Kwahu East,1
6.1313988,-0.3183792,233,"New-Juaben Municipal, Ghana,12/11/2015@07:17",EMS: FALL VICTIM,11/12/2015 7:17,,New juaben,1
5.9405114,-0.7152749,233,"West Akim, Ghana,12/11/2015@07:23",Traffic: VEHICLE ACCIDENT -,11/12/2015 7:23,,West Akim,1
6.513722,-0.7722974,233,"Kwahu West, Ghana,12/11/2015@07:26",Fire: GAS-ODOR/LEAK,11/12/2015 7:26,,Kwahu West,1
6.3854758,-1.0011902,233,"Birim North, Ghana,12/11/2015@07:29",Traffic: VEHICLE ACCIDENT -,11/12/2015 7:29,,Birim North,1
6.4286151,-0.658333,233,"Atiwa East, Ghana,12/11/2015@07:28",Traffic: VEHICLE ACCIDENT -,11/12/2015 7:28,,Atiwa,1
5.8765639,-1.0777723,233,"Birim South, Ghana,12/11/2015@07:31",EMS: HEMORRHAGING,11/12/2015 7:31,,Birim South,1
6.2793723,-0.8675134,233,"Kwaebibirem, Ghana,12/11/2015@07:42",Traffic: VEHICLE ACCIDENT -,11/12/2015 7:42,,Kwaebibirem,1
6.4502326,-0.3371889,233,"Fanteakwa, Ghana,12/11/2015@07:53",EMS: RESPIRATORY EMERGENCY,11/12/2015 7:53,,Fanteakwa,1
6.1739113,-0.0186555,233,"Lower Manya, Ghana,12/11/2015@07:58",Fire: UNKNOWN TYPE FIRE,11/12/2015 7:58,,Lower Manya Krobo,1
5.9407571,-0.4879916,233,"Suhum/Kraboa/Coaltar, Ghana,12/11/2015@08:01",EMS: UNRESPONSIVE SUBJECT,11/12/2015 8:01,,Kraboa,1
6.365145,-0.1120696,233,"Manya Krobo, Ghana,12/11/2015@08:04",Traffic: VEHICLE ACCIDENT -,11/12/2015 8:04,,Upper Manya Krobo,1
6.1738852,-0.1682271,233,"Yilo Krobo, Ghana,12/11/2015@08:06",EMS: FALL VICTIM,11/12/2015 8:06,,Yilo Krobo,1
5.5954648,-0.2426031,233,"Abeka, Accra, Ghana,12/11/2015@08:06",Traffic: VEHICLE ACCIDENT -,11/12/2015 8:06,Accra,Abeka-Lapaz,1
5.6087022,-0.2164185,233,"Abelemkpe, Accra, Ghana,12/11/2015@08:11",Fire: BUILDING FIRE,11/12/2015 8:11,Accra,Abelemkpe,1
5.5511744,-0.2526163,233,"Ablekuma, Accra, Ghana,12/11/2015@08:12",Traffic: VEHICLE ACCIDENT -,11/12/2015 8:12,Accra,Ablekuma,1
5.5603679,-0.2373658,233,"Abosseyokai, Accra, Ghana,12/11/2015@08:11",Traffic: VEHICLE ACCIDENT -,11/12/2015 8:11,Accra,Abossey Okai,1
5.6037168,-0.1869644,233,"Accra, Ghana,12/11/2015@08:13",Traffic: VEHICLE ACCIDENT -,11/12/2015 8:13,Accra,Accra,1
5.578178,-0.2158249,233,"Accra New Town, Accra, Ghana,12/11/2015@08:04",Traffic: VEHICLE ACCIDENT -,11/12/2015 8:04,Accra,Accra New Town,1
5.612781,-0.234345,233,"Achimota, Ghana,12/11/2015@08:20",EMS: GENERAL WEAKNESS,11/12/2015 8:20,Achimota,Achimota,1
5.7796907,0.6180479,233,"Ada Foah, Ghana,12/11/2015@08:21",Fire: ELECTRICAL FIRE OUTSIDE,11/12/2015 8:21,Ada Foah,Ada Foah,1
5.5630028,-0.2115709,233,"Adabraka, Accra, Ghana,12/11/2015@08:26",Traffic: DISABLED VEHICLE -,11/12/2015 8:26,Accra,Adabraka,1
5.7141674,-0.15418,233,"Adenta Municipality, Ghana,12/11/2015@08:29",EMS: SUBJECT IN PAIN,11/12/2015 8:29,Adenta Municipality,Adenta,1
5.6817075,-0.0374819,233,"Adjei Kojo Lashibi Roadi, Ghana,12/11/2015@08:26",Traffic: VEHICLE ACCIDENT -,11/12/2015 8:26,,Adjei Kojo,1
5.7351349,-0.3607137,233,"Adjen Kotoku, Ghana,12/11/2015@08:31",EMS: SUBJECT IN PAIN,11/12/2015 8:31,Adjen Kotoku,Adjen Kotoku,1
5.5992335,-0.1758426,233,"Airport City, Accra, Ghana,12/11/2015@08:32",Traffic: VEHICLE ACCIDENT -,11/12/2015 8:32,Accra,Airport City Accra,1
5.6061047,-0.1860362,233,"Airport Residential Area, Accra, Ghana,12/11/2015@08:44",EMS: CARDIAC EMERGENCY,11/12/2015 8:44,Accra,Airport Residential Area,1
5.6130238,-0.2399401,233,"Akweteyman, Ghana,12/11/2015@08:41",Traffic: VEHICLE ACCIDENT -,11/12/2015 8:41,Akweteyman,Akweteyman,1
5.5987311,-0.2170443,233,"Alajo, Accra, Ghana,12/11/2015@08:46",EMS: CVA/STROKE,11/12/2015 8:46,Accra,Alajo,1
5.7062137,-0.3019281,233,"Amasaman, Ghana,12/11/2015@08:50",Fire: FIRE ALARM,11/12/2015 8:50,Amasaman,Amasaman,1
5.6931346,-0.0326531,233,"Ashaiman, Tema, Ghana,12/11/2015@08:47",Fire: DEBRIS/FLUIDS ON HIGHWAY,11/12/2015 8:47,Tema,Ashaiman,1
5.7062442,-0.2361929,233,"Ashongman Estates, Ghana,12/11/2015@08:46",Fire: FIRE ALARM,11/12/2015 8:46,,Ashongman,1
5.7330215,-0.0671204,233,"Asoprochona, Ghana,12/11/2015@08:50",Traffic: DISABLED VEHICLE -,11/12/2015 8:50,,Asoprochona,1
5.5866078,-0.2772644,233,"Awoshie, Ghana,12/11/2015@08:49",Traffic: DISABLED VEHICLE -,11/12/2015 8:49,Awoshie,Awoshie,1
5.7821601,-0.182158,233,"Ayi Mensah, Oyarifa Rd, Accra, Ghana,12/11/2015@08:50",Traffic: DISABLED VEHICLE -,11/12/2015 8:50,Accra,Ayi Mensa,1
5.8271406,0.6133111,233,"Big Ada, Ghana,12/11/2015@08:47",Traffic: DEBRIS/FLUIDS ON HIGHWAY -,11/12/2015 8:47,Big Ada,Big Ada,1
5.5787409,-0.251443,233,"Bubiashie, Accra, Ghana,12/11/2015@08:47",Fire: DEBRIS/FLUIDS ON HIGHWAY,11/12/2015 8:47,Accra,Bubuashi,1
5.5787409,-0.251443,233,"Bubiashie, Accra, Ghana,12/11/2015@08:54",EMS: HEMORRHAGING,11/12/2015 8:54,Accra,Bubuashie,1
5.5375172,-0.2139736,233,"Bukom, Accra, Ghana,12/11/2015@08:57",EMS: CARDIAC EMERGENCY,11/12/2015 8:57,Accra,Bukom,1
5.5767652,-0.1784836,233,"Cantonments, Accra, Ghana,12/11/2015@09:06",EMS: UNRESPONSIVE SUBJECT,11/12/2015 9:06,Accra,"Cantonments, Accra",1
7.946527,-1.023194,233,"Ghana,12/11/2015@09:14",Fire: GAS-ODOR/LEAK,11/12/2015 9:14,,"Caprice, Ghana",1
5.5322991,-0.2475401,233,"Chorkor, Accra, Ghana,12/11/2015@09:29",Fire: FIRE ALARM,11/12/2015 9:29,Accra,Chorkor,1
5.6346309,-0.2214085,233,"Christian Village, Accra, Ghana,12/11/2015@09:32",Fire: FIRE ALARM,11/12/2015 9:32,Accra,Christian Village,1
5.5427477,-0.2565425,233,"Dansoman, Accra, Ghana,12/11/2015@09:33",EMS: MEDICAL ALERT ALARM,11/12/2015 9:33,Accra,Dansoman,1
5.7563128,0.0513246,233,"Dawhenya, Ghana,12/11/2015@09:38",EMS: SYNCOPAL EPISODE,11/12/2015 9:38,Dawhenya,Dawhenya,1
5.8828665,-0.098043,233,"Dodowa, Ghana,12/11/2015@09:37",EMS: UNKNOWN MEDICAL EMERGENCY,11/12/2015 9:37,Dodowa,Dodowa,1
5.6562651,-0.2338473,233,"Dome, Ghana,12/11/2015@09:45",Fire: FIRE ALARM,11/12/2015 9:45,,"Dome, Ghana",1
5.6141232,-0.1956471,233,"Dzorwulu, Accra, Ghana,12/11/2015@09:54",EMS: GENERAL WEAKNESS,11/12/2015 9:54,Accra,Dzorwulu,1
5.6358281,-0.1613592,233,"East Legon, Accra, Ghana,12/11/2015@09:53",Traffic: VEHICLE ACCIDENT -,11/12/2015 9:53,Accra,East Legon,1
5.5773983,-0.3136781,233,"Gbawe, Ghana,12/11/2015@09:58",EMS: SEIZURES,11/12/2015 9:58,Gbawe,Gbawe,1
5.6694251,-0.203367,233,"Haatso, Ghana,12/11/2015@10:15",Traffic: VEHICLE ACCIDENT -,11/12/2015 10:15,Haatso,Haatso,1
5.576118,-0.2444038,233,"Kaneshie, Accra, Ghana,12/11/2015@10:18",EMS: RESPIRATORY EMERGENCY,11/12/2015 10:18,Accra,Kaneshie,1
5.5758396,-0.2086447,233,"Kokomlemle, Accra, Ghana,12/11/2015@10:22",EMS: CARDIAC EMERGENCY,11/12/2015 10:22,Accra,Kokomlemle,1
5.4999558,-0.3665972,233,"Kokrobite, Ghana,12/11/2015@10:29",EMS: VEHICLE ACCIDENT,11/12/2015 10:29,Kokrobite,Kokrobite,1
5.5328145,-0.2268113,233,"Korle Gonno, Accra, Ghana,12/11/2015@10:30",Traffic: ROAD OBSTRUCTION -,11/12/2015 10:30,Accra,Korle Gonno,1
5.5997705,-0.2045388,233,"Kotobabi, Accra, Ghana,12/11/2015@10:33",Traffic: VEHICLE ACCIDENT -,11/12/2015 10:33,Accra,Kotobabi,1
5.6844172,-0.2537157,233,"Kwabenya, Ghana,12/11/2015@10:34",EMS: UNCONSCIOUS SUBJECT,11/12/2015 10:34,Kwabenya,Kwabenya,1
5.5937587,-0.2690565,233,"Kwashieman, Ghana,12/11/2015@10:32",Fire: GAS-ODOR/LEAK,11/12/2015 10:32,Kwashieman,Kwashieman,1
5.562204,-0.1385295,233,"Labadi Beach, Accra, Ghana,12/11/2015@10:37",Fire: VEHICLE ACCIDENT,11/12/2015 10:37,Accra,Labadi,1
5.5682665,-0.1717396,233,"Labone, Accra, Ghana,12/11/2015@10:36",EMS: CVA/STROKE,11/12/2015 10:36,Accra,"Labone, Accra",1
5.6095075,-0.2507539,233,"Lapaz, Ghana,12/11/2015@10:38",Fire: FIRE INVESTIGATION,11/12/2015 10:38,Lapaz,Lapaz (Accra),1
5.5532782,-0.24014,233,"Lartebiokorshie, Accra, Ghana,12/11/2015@10:39",Traffic: VEHICLE ACCIDENT -,11/12/2015 10:39,Accra,Lartebiokorshie,1
5.6847539,-0.0379152,233,"Lashibi, Ghana,12/11/2015@10:45",Traffic: ROAD OBSTRUCTION -,11/12/2015 10:45,Lashibi,Lashibi,1
5.6506394,-0.1870506,233,"Legon, Accra, Ghana,12/11/2015@10:44",Traffic: VEHICLE ACCIDENT -,11/12/2015 10:44,Accra,Legon,1
5.5945193,-0.1975081,233,"Maamobi, Accra, Ghana,12/11/2015@10:46",EMS: FALL VICTIM,11/12/2015 10:46,Accra,Maamobi,1
5.6731273,-0.1663851,233,"Madina, Ghana,12/11/2015@10:47",Traffic: DISABLED VEHICLE -,11/12/2015 10:47,Madina,"Madina, Ghana",1
5.54781,-0.2071414,233,"Makola, Ghana,12/11/2015@10:55",EMS: UNKNOWN MEDICAL EMERGENCY,11/12/2015 10:55,Makola,"Makola, Ghana",1
5.5770604,-0.2871621,233,"Mallam, Ghana,12/11/2015@10:48",Traffic: DISABLED VEHICLE -,11/12/2015 10:48,Mallam,"Mallam, Ghana",1
5.5367445,-0.2420576,233,"Mamprobi, Accra, Ghana,12/11/2015@11:02",Traffic: VEHICLE ACCIDENT -,11/12/2015 11:02,Accra,Mamprobi,1
5.5661142,-0.2476103,233,"Mataheko, Accra, Ghana,12/11/2015@11:06",Traffic: DISABLED VEHICLE -,11/12/2015 11:06,Accra,Mataheko,1
5.7498299,0.0835447,233,"Miotso, Ghana,12/11/2015@11:20",EMS: SYNCOPAL EPISODE,11/12/2015 11:20,,Miotso,1
5.6166572,-0.2500087,233,"F83 Aborlebu Cres, Lapaz, Ghana,12/11/2015@11:21",Fire: FIRE ALARM,11/12/2015 11:21,Lapaz,Nii Boi Town,1
5.5820038,-0.1984173,233,"Nima, Accra, Ghana,12/11/2015@11:21",EMS: SYNCOPAL EPISODE,11/12/2015 11:21,Accra,"Nima, Accra",1
5.5826925,-0.224065,233,"North Industrial Area, Accra, Ghana,12/11/2015@11:34",EMS: HEMORRHAGING,11/12/2015 11:34,Accra,"North Industrial Area, Accra",1
5.5804557,-0.2633237,233,"Odorkor, Accra, Ghana,12/11/2015@11:31",Fire: FIRE ALARM,11/12/2015 11:31,Accra,Odorkor,1
5.6660429,-0.1443824,233,"Ogbodjo, Ghana,12/11/2015@11:35",Fire: FIRE ALARM,11/12/2015 11:35,Ogbodjo,Ogbodjo,1
5.7562831,0.1916501,233,"Old Ningo, Ghana,12/11/2015@11:35",Traffic: VEHICLE ACCIDENT -,11/12/2015 11:35,Old Ningo,Old Ningo,1
5.7556353,-0.1738945,233,"Oyarifa, Ghana,12/11/2015@11:37",EMS: RESPIRATORY EMERGENCY,11/12/2015 11:37,,Oyarifa,1
5.7332654,-0.1843777,233,"Pantang West, Ghana,12/11/2015@11:39",Fire: FIRE ALARM,11/12/2015 11:39,Pantang West,Pantang,1
5.700273,-0.302078,233,"Pokoasi, Ghana,12/11/2015@11:42",EMS: FALL VICTIM,11/12/2015 11:42,,"Pokuase, Ghana",1
5.7247051,0.1167463,233,"Prampram, Ghana,12/11/2015@11:51",EMS: FEVER,11/12/2015 11:51,Prampram,Prampram,1
5.5524939,-0.2350201,233,"Sabon Zango, Accra, Ghana,12/11/2015@11:53",Traffic: VEHICLE ACCIDENT -,11/12/2015 11:53,Accra,Sabon Zongo,1
5.5754558,-0.2742955,233,"Sakaman Bus Stop, Accra, Ghana,12/11/2015@11:58",Traffic: ROAD OBSTRUCTION -,11/12/2015 11:58,Accra,Sakaman,1
5.7002829,-0.8323082,233,"Santeo, Ghana,12/11/2015@12:01",Traffic: VEHICLE ACCIDENT -,11/12/2015 12:01,Santeo,Santeo,1
5.8827593,0.3607137,233,"Sege, Ghana,12/11/2015@12:02",Traffic: DISABLED VEHICLE -,11/12/2015 12:02,Sege,Sege (town),1
5.63394,-0.1740815,233,"Shiashie, Accra, Ghana,12/11/2015@12:09",EMS: SYNCOPAL EPISODE,11/12/2015 12:09,Accra,Shiashie,1
5.6250943,-0.2724254,233,"Sowutoum, Ghana,12/11/2015@12:15",EMS: SEIZURES,11/12/2015 12:15,Sowutoum,Sowutuom,1
5.6525027,-0.2506834,233,"Taifa, Ghana,12/11/2015@12:18",EMS: HEAD INJURY,11/12/2015 12:18,Taifa,"Taifa, Accra",1
5.7348119,0.0302354,233,"Tema, Ghana,12/11/2015@12:18",EMS: HEAD INJURY,11/12/2015 12:18,Tema,Tema,1
5.6549971,-0.0081607,233,"Community Four, Tema, Ghana,12/11/2015@12:31",Traffic: VEHICLE ACCIDENT -,11/12/2015 12:31,Tema,Tema Community 4,1
5.6431659,-0.0163231,233,"Akorley-dzor, Tema, Ghana,12/11/2015@12:34",Fire: ELECTRICAL FIRE OUTSIDE,11/12/2015 12:34,Tema,Tema Community 5,1
5.6057034,-0.2353967,233,"Tesano, Accra, Ghana,12/11/2015@12:32",EMS: FALL VICTIM,11/12/2015 12:32,Accra,Tesano,1
5.5831665,-0.1046082,233,"Teshie, Accra, Ghana,12/11/2015@12:33",EMS: HEMORRHAGING,11/12/2015 12:33,Accra,Teshie,1
5.5831665,-0.1046082,233,"Teshie, Accra, Ghana,12/11/2015@12:31",EMS: UNRESPONSIVE SUBJECT,11/12/2015 12:31,Accra,Teshie-Nungua,1
5.5525044,-0.2068827,233,"Tudu, Accra, Ghana,12/11/2015@12:31",EMS: BACK PAINS/INJURY,11/12/2015 12:31,Accra,"Tudu, Ghana",1
5.5666403,-0.3334778,233,"Weija, Ghana,12/11/2015@12:31",Traffic: VEHICLE ACCIDENT -,11/12/2015 12:31,Weija,Weija,1
6.8058848,-1.5353893,233,"Aboaso, Ghana,12/11/2015@12:40",EMS: HEAD INJURY,11/12/2015 12:40,Aboaso,Aboaso,1
7.1354022,-1.7319828,233,"Abofour, Ghana,12/11/2015@12:34",Fire: ELECTRICAL FIRE OUTSIDE,11/12/2015 12:34,Abofour,Abofour,1
6.7559282,-1.6799196,233,"Abrepo Rd, Ghana,12/11/2015@12:42",EMS: UNKNOWN MEDICAL EMERGENCY,11/12/2015 12:42,,Abrepo,1
6.2980575,-1.8369139,233,"Abuakwa, Ghana,12/11/2015@12:41",Traffic: VEHICLE ACCIDENT -,11/12/2015 12:41,Abuakwa,Abuakwa Ashanti,1
6.1720193,-1.4241426,233,"Adansi Asokwa, Ghana,12/11/2015@12:44",EMS: SYNCOPAL EPISODE,11/12/2015 12:44,,Adansi Asokwa,1
6.812697,-1.4756031,233,"Adanwomase, Ghana,12/11/2015@12:50",EMS: RESPIRATORY EMERGENCY,11/12/2015 12:50,Adanwomase,Adanwomase,1
6.8784526,-1.8525626,233,"Adugyama, Ghana,12/11/2015@12:51",EMS: ABDOMINAL PAINS,11/12/2015 12:51,Adugyama,Adugyama,1
6.816667,-1.616667,233,"Aduman, Ghana,12/11/2015@12:54",EMS: RESPIRATORY EMERGENCY,11/12/2015 12:54,Aduman,Aduman,1
7.4148895,-1.9661369,233,"Afrancho, Ghana,12/11/2015@12:52",Traffic: VEHICLE ACCIDENT -,11/12/2015 12:52,Afrancho,Afrancho,1
6.7990626,-1.0849592,233,"Agogo, Ghana,12/11/2015@12:56",Fire: VEHICLE ACCIDENT,11/12/2015 12:56,Agogo,"Agogo, Ghana",1
6.9347027,-1.4869856,233,"Agona, Ghana,12/11/2015@13:00",EMS: ALLERGIC REACTION,11/12/2015 13:00,Agona,Agona,1
6.4136904,-1.8788063,233,"Agroyesum, Ghana,12/11/2015@12:57",EMS: DIZZINESS,11/12/2015 12:57,Agroyesum,Agroyesum,1
6.9019734,-1.6517812,233,"Ahwiaa, Ghana,12/11/2015@13:01",EMS: HEAD INJURY,11/12/2015 13:01,Ahwiaa,Ahwiaa,1
6.4615164,-1.5014516,233,"Ahwiren, Ghana,12/11/2015@13:01",EMS: MEDICAL ALERT ALARM,11/12/2015 13:01,Ahwiren,Ahwiren,1
6.1183238,-1.6663523,233,"Amankyim, Ghana,12/11/2015@13:01",Traffic: VEHICLE ACCIDENT -,11/12/2015 13:01,Amankyim,Akrofuom,1
6.2961727,-1.6250803,233,"Akrokerri, Ghana,12/11/2015@13:04",Fire: FIRE ALARM,11/12/2015 13:04,Akrokerri,Akrokerri,1
7.3960321,-1.9539106,233,"Akumadan, Ghana,12/11/2015@13:05",EMS: HEAD INJURY,11/12/2015 13:05,Akumadan,Akumadan,1
6.6798051,-1.6039047,233,"Amakom, Kumasi, Ghana,12/11/2015@13:02",EMS: LACERATIONS,11/12/2015 13:02,Kumasi,Amakom,1
6.7743075,-1.4943339,233,"Antoa, Ghana,12/11/2015@13:17",EMS: UNCONSCIOUS SUBJECT,11/12/2015 13:17,Antoa,Antoa,1
6.4650469,-1.6360014,233,"Anwia Nkwanta, Ghana,12/11/2015@13:16",EMS: CVA/STROKE,11/12/2015 13:16,Anwia Nkwanta,Anwia-Nkwanta,1
6.6883018,-1.6187039,233,"Asafo, Kumasi, Ghana,12/11/2015@13:21",EMS: FALL VICTIM,11/12/2015 13:21,Kumasi,Asafo Kumasi,1
5.9050395,-1.5212729,233,"Asaman, Ghana,12/11/2015@13:23",EMS: FALL VICTIM,11/12/2015 13:23,Avon,Asaman,1
5.9050395,-1.5082729,233,"Asamang, Ghana,12/11/2015@13:30",EMS: SUBJECT IN PAIN,11/12/2015 13:30,Asamang,Asamang,1
6.605282,-1.0454469,233,"Asankare, Ghana,12/11/2015@13:26",EMS: HEAD INJURY,11/12/2015 13:26,Asankare,Asankare,1
6.4279761,-1.3330645,233,"Asiwa, Ghana,12/11/2015@13:28",Traffic: VEHICLE ACCIDENT -,11/12/2015 13:28,Asiwa,Asiwa,1
6.1157292,-0.2718018,233,"Asokore, Koforidua, Ghana,12/11/2015@13:30",Traffic: VEHICLE ACCIDENT -,11/12/2015 13:30,Koforidua,Asokore,1
6.7174915,-1.5620347,233,"Asokore Mampong, Kumasi, Ghana,12/11/2015@13:31",EMS: SUBJECT IN PAIN,11/12/2015 13:31,Kumasi,Asokore Mampong,1
6.8326718,-1.5001704,233,"Asonomaso, Ghana,12/11/2015@13:32",EMS: UNCONSCIOUS SUBJECT,11/12/2015 13:32,Asonomaso,Asonomaso,1
5.8686366,-0.5754294,233,"Atimatim, Ghana,12/11/2015@13:34",Traffic: VEHICLE ACCIDENT -,11/12/2015 13:34,Atimatim,Atimatim,1
6.8481245,-1.7198215,233,"Barekese, Ghana,12/11/2015@13:48",EMS: HEAD INJURY,11/12/2015 13:48,Barekese,Barekese,1
6.4532257,-1.5838477,233,"Bekwai, Ghana,12/11/2015@13:47",EMS: SUBJECT IN PAIN,11/12/2015 13:47,Bekwai,Bekwai,1
6.4553249,-1.3119816,233,"Beposo, Ghana,12/11/2015@13:49",EMS: SUBJECT IN PAIN,11/12/2015 13:49,Beposo,Beposo,1
6.8313792,-1.5196521,233,"Ntonso, Ghana,12/11/2015@13:47",EMS: GENERAL WEAKNESS,11/12/2015 13:47,Ntonso,Bobiri,1
6.2838863,-1.4194307,233,"Bodwesango, Ghana,12/11/2015@14:00",EMS: UNCONSCIOUS SUBJECT,11/12/2015 14:00,Bodwesango,Bodwesango,1
6.6253012,-1.0592364,233,"Bompata, Ghana,12/11/2015@13:57",Traffic: VEHICLE LEAKING FUEL -,11/12/2015 13:57,Bompata,Bompata,1
5.8998853,-1.4257287,233,"Bremang, Ghana,12/11/2015@14:06",Fire: FIRE ALARM,11/12/2015 14:06,Bremang,Bremang,1
6.2891773,-0.4679299,233,"Bunso, Ghana,12/11/2015@14:10",EMS: MEDICAL ALERT ALARM,11/12/2015 14:10,Bunso,"Bunso, Ghana",1
6.8821943,-1.3658075,233,"Dadease, Ghana,12/11/2015@14:14",EMS: RESPIRATORY EMERGENCY,11/12/2015 14:14,Dadease,Dadease,1
6.5545551,-1.0452545,233,"Dampong, Ghana,12/11/2015@14:15",Traffic: VEHICLE ACCIDENT -,11/12/2015 14:15,Dampong,Dampong,1
6.1989753,-1.6839666,233,"Dominase, Ghana,12/11/2015@14:16",Traffic: VEHICLE ACCIDENT -,11/12/2015 14:16,Dominase,Dominase,1
6.3123906,-1.5329678,233,"Dompoase, Ghana,12/11/2015@14:19",EMS: CARDIAC EMERGENCY,11/12/2015 14:19,Dompoase,Dompoase,1
6.8652504,-1.3951694,233,"Effiduase, Ghana,12/11/2015@14:20",EMS: CARDIAC EMERGENCY,11/12/2015 14:20,Effiduase,Effiduase,1
6.7150806,-1.5091172,233,"Ejisu, Ghana,12/11/2015@14:16",Fire: BUILDING FIRE,11/12/2015 14:16,Ejisu,Ejisu,1
7.3847202,-1.3589807,233,"Ejura, Ghana,12/11/2015@14:19",Traffic: ROAD OBSTRUCTION -,11/12/2015 14:19,Ejura,Ejura,1
6.5608253,-1.8859812,233,"Esase Bontefufuo, Ghana,12/11/2015@14:23",EMS: NAUSEA/VOMITING,11/12/2015 14:23,Esase Bontefufuo,Esase Bontefufuo,1
6.2819069,-1.5099705,233,"Fomena, Ghana,12/11/2015@14:28",EMS: FALL VICTIM,11/12/2015 14:28,Fomena,Fomena,1
6.5633403,-1.5163378,233,"HF7M+8FM, Pramso, Ghana,12/11/2015@14:35",EMS: CARDIAC EMERGENCY,11/12/2015 14:35,Pramso,Jachie-Pramso,1
6.3491696,-1.6736397,233,"Jacobo, Ghana,12/11/2015@14:32",EMS: CVA/STROKE,11/12/2015 14:32,Jacobo,Jacobu,1
6.9750009,-1.4748932,233,"Gyamase, Ghana,12/11/2015@14:32",Traffic: DISABLED VEHICLE -,11/12/2015 14:32,Gyamase,Jamasi,1
6.7873581,-1.4652217,233,"Juaben, Ghana,12/11/2015@14:32",Traffic: VEHICLE ACCIDENT -,11/12/2015 14:32,Juaben,Juaben,1
6.5824286,-1.1209121,233,"Juaso, Ghana,12/11/2015@14:38",EMS: ABDOMINAL PAINS,11/12/2015 14:38,Juaso,Juaso,1
7.946527,-1.023194,233,"Ghana,12/11/2015@14:42",EMS: SYNCOPAL EPISODE,11/12/2015 14:42,,"Kasei, Ghana",1
6.7974794,-1.6493532,233,"Kodee, Ghana,12/11/2015@14:47",EMS: GENERAL WEAKNESS,11/12/2015 14:47,Kodee,"Kodie, Ghana",1
6.5036668,-1.5332705,233,"Kokofu, Ghana,12/11/2015@14:46",EMS: RESPIRATORY EMERGENCY,11/12/2015 14:46,Kokofu,Kokofu,1
6.6249454,-1.2073261,233,"Konongo, Ghana,12/11/2015@14:52",EMS: FALL VICTIM,11/12/2015 14:52,Konongo,"Konongo, Ghana",1
6.4206287,-1.8131021,233,"Kortwia-Abodom, Ghana,12/11/2015@14:55",Traffic: DISABLED VEHICLE -,11/12/2015 14:55,Kortwia-Abodom,Kortwia-Abodom,1
6.6666004,-1.6162709,233,"Kumasi, Ghana,12/11/2015@14:57",Fire: FIRE ALARM,11/12/2015 14:57,Kumasi,Kumasi,1
6.9111632,-1.2770675,233,"Kumawu, Ghana,12/11/2015@15:00",Traffic: VEHICLE ACCIDENT -,11/12/2015 15:00,Kumawu,Kumawu,1
6.5281583,-1.4773114,233,"Kuntanse, Ghana,12/11/2015@15:02",EMS: NAUSEA/VOMITING,11/12/2015 15:02,Kuntanse,Kuntanase,1
6.6904719,-1.6493532,233,"Kwadaso, Kumasi, Ghana,12/11/2015@15:05",Fire: FIRE ALARM,11/12/2015 15:05,Kumasi,Kwadaso,1
6.633333,-1.45,233,"Kwaso, Ghana,12/11/2015@15:05",Traffic: VEHICLE ACCIDENT -,11/12/2015 15:05,,"Kwaso, Ghana",1
6.9935955,-2.2162882,233,"Maabang, Ghana,12/11/2015@15:07",EMS: FALL VICTIM,11/12/2015 15:07,Maabang,Maabang,1
7.053137,-1.3999969,233,"Mampong, Ghana,12/11/2015@15:08",Fire: FIRE ALARM,11/12/2015 15:08,Mampong,Mampong,1
6.783333,-1.566667,233,"Mamponteng, Kumasi, Ghana,12/11/2015@15:09",Fire: GAS-ODOR/LEAK,11/12/2015 15:09,Kumasi,Mamponteng,1
6.8181278,-1.8635409,233,"Mankranso, Ghana,12/11/2015@15:12",Fire: FIRE ALARM,11/12/2015 15:12,Mankranso,Mankranso,1
6.4017229,-1.9302718,233,"Manso Adubia, Ghana,12/11/2015@15:20",Traffic: VEHICLE ACCIDENT -,11/12/2015 15:20,Manso Adubia,Manso Adubia,1
6.4471694,-1.8533773,233,"Manso Atwere, Ghana,12/11/2015@15:26",EMS: DIZZINESS,11/12/2015 15:26,Manso Atwere,Manso Atwere,1
6.4696004,-1.8866802,233,"Manso Nkwanta, Ghana,12/11/2015@15:26",Fire: FIRE ALARM,11/12/2015 15:26,Manso Nkwanta,Manso Nkwanta,1
6.6630636,-1.8440259,233,"Mpasatia, Ghana,12/11/2015@15:29",Traffic: VEHICLE ACCIDENT -,11/12/2015 15:29,Mpasatia,Mpasatia,1
7.0276538,-1.4505004,233,"Mprim, Ghana,12/11/2015@15:32",EMS: SYNCOPAL EPISODE,11/12/2015 15:32,Mprim,Mprim,1
6.966667,-1.683333,233,"Namong, Ofinso, Ghana,12/11/2015@15:30",Traffic: DISABLED VEHICLE -,11/12/2015 15:30,Ofinso,Namong,1
6.0295145,-1.3337516,233,"New Edubiase, Ghana,12/11/2015@15:41",Traffic: VEHICLE ACCIDENT -,11/12/2015 15:41,New Edubiase,New Edubiase,1
6.6642095,-1.8169492,233,"Nkawie, Ghana,12/11/2015@15:45",Traffic: DISABLED VEHICLE -,11/12/2015 15:45,Nkawie,Nkawie,1
7.0128913,-1.3782775,233,"Nsuta, Ghana,12/11/2015@15:42",Traffic: ROAD OBSTRUCTION -,11/12/2015 15:42,Nsuta,Nsuta,1
6.9807442,-1.3493356,233,"Beposo, Ghana,12/11/2015@15:45",Traffic: VEHICLE ACCIDENT -,11/12/2015 15:45,Beposo,Nsuta-Beposo,1
6.8313792,-1.5196521,233,"Ntonso, Ghana,12/11/2015@15:47",Traffic: DISABLED VEHICLE -,11/12/2015 15:47,Ntonso,Ntonso,1
6.5978957,-2.118023,233,"Nyinahin, Ghana,12/11/2015@15:48",Traffic: VEHICLE ACCIDENT -,11/12/2015 15:48,Nyinahin,Nyinahin,1
6.2012073,-1.6912512,233,"Obuasi, Ghana,12/11/2015@15:46",EMS: FALL VICTIM,11/12/2015 15:46,Obuasi,Obuasi,1
5.9568227,0.0513246,233,"Odumase Krobo, Ghana,12/11/2015@15:48",EMS: VEHICLE ACCIDENT,11/12/2015 15:48,Odumase Krobo,Odumasi Krobo,1
6.6928115,-1.5477592,233,"Oduom, Kumasi, Ghana,12/11/2015@15:48",Fire: VEHICLE ACCIDENT,11/12/2015 15:48,Kumasi,Oduom,1
7.0467182,-1.714958,233,"Offinso Municipal, Ghana,12/11/2015@15:47",Traffic: DISABLED VEHICLE -,11/12/2015 15:47,,Offinso,1
6.4810146,-1.6408561,233,"Ofoase Kokoben, Ghana,12/11/2015@15:49",Traffic: VEHICLE ACCIDENT -,11/12/2015 15:49,Ofoase Kokoben,Ofoase-Kokoben,1
6.6804019,-1.4507187,233,"Onwe, Ghana,12/11/2015@15:55",EMS: FRACTURE,11/12/2015 15:55,Onwe,Onwe,1
6.5518754,-1.571728,233,"Oyoko, Ghana,12/11/2015@15:53",EMS: RESPIRATORY EMERGENCY,11/12/2015 15:53,Oyoko,Oyoko,1
6.7523126,-1.5833633,233,"Pankrono, Kumasi, Ghana,12/11/2015@15:59",EMS: ABDOMINAL PAINS,11/12/2015 15:59,Kumasi,Pankrono,1
6.7963627,-1.5029731,233,"Sakora Wonoo, Ghana,12/11/2015@16:04",EMS: HEMORRHAGING,11/12/2015 16:04,,Sakora Wonoo,1
7.3926839,-1.4048249,233,"Ejura-Sekyedumase, Ghana,12/11/2015@16:02",EMS: VEHICLE ACCIDENT,11/12/2015 16:02,,Sekyedumase,1
6.7225718,-1.6444975,233,"Suame, Kumasi, Ghana,12/11/2015@16:03",Traffic: VEHICLE ACCIDENT -,11/12/2015 16:03,Kumasi,"Suame Magazine, Kumasi",1
6.7447067,-1.6044059,233,"Tafo, Kumasi, Ghana,12/11/2015@16:05",Traffic: VEHICLE ACCIDENT -,11/12/2015 16:05,Kumasi,Tafo,1
6.6983113,-1.6906291,233,"Tanoso, Kumasi, Ghana,12/11/2015@16:02",Traffic: VEHICLE ACCIDENT -,11/12/2015 16:02,Kumasi,Tanoso,1
7.0072367,-2.1695855,233,"Tepa, Ghana,12/11/2015@16:06",Fire: BURN VICTIM,11/12/2015 16:06,Tepa,"Tepa, Ghana",1
6.663189,-1.8098954,233,"Toase, Ghana,12/11/2015@16:06",EMS: BURN VICTIM,11/12/2015 16:06,Toase,Toase,1
6.2493578,-1.9948791,233,"Tontokrom, Ghana,12/11/2015@16:10",EMS: VEHICLE ACCIDENT,11/12/2015 16:10,Tontokrom,Tontokrom,1
6.661101,-1.7203951,233,"M76H+CRX, Atwima Boko, Ghana,12/11/2015@16:10",Traffic: VEHICLE ACCIDENT -,11/12/2015 16:10,Atwima Boko,Twedie,1
7.0554574,-1.5184418,233,"Wiamoase, Ghana,12/11/2015@16:09",Traffic: VEHICLE ACCIDENT -,11/12/2015 16:09,Wiamoase,Wiamoase,1
6.2990848,-1.5402327,233,"Adansi North, Ghana,12/11/2015@16:11",Fire: VEHICLE ACCIDENT,11/12/2015 16:11,,Adansi North,1
6.0239681,-1.3276422,233,"Adansi South, Ghana,12/11/2015@16:19",EMS: FALL VICTIM,11/12/2015 16:19,,Adansi South,1
6.8538357,-1.6178011,233,"Afigya Kwabre South, Ghana,12/11/2015@16:18",Fire: FIRE INVESTIGATION,11/12/2015 16:18,,Afigya-Kwabre,1
6.8726796,-2.2630393,233,"Ahafo Ano North, Ghana,12/11/2015@16:20",Traffic: VEHICLE ACCIDENT -,11/12/2015 16:20,,Ahafo Ano North,1
6.9595463,-2.027319,233,"Ahafo Ano South, Ghana,12/11/2015@16:19",Traffic: VEHICLE ACCIDENT -,11/12/2015 16:19,,Ahafo Ano South,1
6.2770367,-1.7928402,233,"Amansie Central, Ghana,12/11/2015@16:30",Traffic: DISABLED VEHICLE -,11/12/2015 16:30,,Amansie Central,1
6.4469339,-1.8708613,233,"Amansie West, Ghana,12/11/2015@16:35",EMS: MEDICAL ALERT ALARM,11/12/2015 16:35,,Amansie West,1
6.4491712,-1.09694,233,"Asante Akim South, Ghana,12/11/2015@16:32",Fire: RESCUE - GENERAL,11/12/2015 16:32,,Asante Akim South,1
6.5968323,-1.6955092,233,"Atwima Kwanwoma, Ghana,12/11/2015@16:33",Fire: WOODS/FIELD FIRE,11/12/2015 16:33,,Atwima Kwanwoma,1
6.659517,-2.0665197,233,"Atwima Mponua, Ghana,12/11/2015@16:32",EMS: RESCUE - GENERAL,11/12/2015 16:32,,Atwima Mponua,1
6.5336974,-1.4048249,233,"Bosomtwe, Ghana,12/11/2015@16:40",EMS: MEDICAL ALERT ALARM,11/12/2015 16:40,,Atwima Nwabiagya,1
6.2996161,-1.3469247,233,"Bosome Freho, Ghana,12/11/2015@16:44",EMS: ALTERED MENTAL STATUS,11/12/2015 16:44,,Bosome Freho,1
6.5016785,-1.4144827,233,"Lake Bosomtwe, Ghana,12/11/2015@16:48",Fire: FIRE ALARM,11/12/2015 16:48,,Bosomtwe,1
7.3847202,-1.3589807,233,"Ejura, Ghana,12/11/2015@16:49",Fire: WOODS/FIELD FIRE,11/12/2015 16:49,Ejura,Ejura Sekyedumase,1
6.8538357,-1.6178011,233,"Afigya Kwabre South, Ghana,12/11/2015@16:47",EMS: BACK PAINS/INJURY,11/12/2015 16:47,,Kwabre,1
7.3261071,-1.8903882,233,"Offinso North, Ghana,12/11/2015@16:57",EMS: DIABETIC EMERGENCY,11/12/2015 16:57,,Offinso North,1
7.2206428,-1.1736994,233,"Sekyere Central, Ghana,12/11/2015@16:58",EMS: DIABETIC EMERGENCY,11/12/2015 16:58,,Sekyere Central,1
6.7690649,-1.3083685,233,"Sekyere East, Ghana,12/11/2015@17:03",EMS: OVERDOSE,11/12/2015 17:03,,SekyereEast,1
7.0469952,-1.637215,233,"Afigya-Sekyere, Ghana,12/11/2015@17:02",EMS: VEHICLE ACCIDENT,11/12/2015 17:02,,Sekyere South,1
6.8769125,-1.0203224,233,"Asante Akim North, Ghana,12/11/2015@17:02",Fire: VEHICLE ACCIDENT,11/12/2015 17:02,,Asante Akim North,1
6.4479739,-1.5596117,233,"Bekwai Municipal, Ghana,12/11/2015@17:02",Traffic: VEHICLE ACCIDENT -,11/12/2015 17:02,,Amansie East,1
6.704594,-1.4048249,233,"Ejisu-Juaben Municipal District, Ghana,12/11/2015@17:10",Traffic: VEHICLE ACCIDENT -,11/12/2015 17:10,,Ejisu Juaben,1
7.053137,-1.3999969,233,"Mampong, Ghana,12/11/2015@17:07",EMS: FALL VICTIM,11/12/2015 17:07,Mampong,Mampong,1
6.2012073,-1.6912512,233,"Obuasi, Ghana,12/11/2015@17:14",Traffic: DISABLED VEHICLE -,11/12/2015 17:14,Obuasi,Obuasi,1
7.0467182,-1.714958,233,"Offinso Municipal, Ghana,12/11/2015@17:14",Traffic: ROAD OBSTRUCTION -,11/12/2015 17:14,,Offinso,1
6.8275927,-2.6983868,233,"Asunafo North Municipal, Ghana,12/11/2015@17:11",Traffic: VEHICLE ACCIDENT -,11/12/2015 17:11,,Asunafo North,1
7.4576765,-2.5842062,233,"Berekum, Ghana,12/11/2015@17:13",Traffic: DISABLED VEHICLE -,11/12/2015 17:13,Berekum,Berekum,1
7.2670619,-2.8676861,233,"Dormaa Ahenkro, Ghana,12/11/2015@17:16",Fire: FIRE ALARM,11/12/2015 17:16,Dormaa Ahenkro,Dormaa,1
8.3932733,-1.5983959,233,"Kintampo North Municipal, Ghana,12/11/2015@17:19",EMS: CARDIAC EMERGENCY,11/12/2015 17:19,,Kintampo North,1
7.3349414,-2.3123031,233,"Sunyani, Ghana,12/11/2015@17:17",EMS: FEVER,11/12/2015 17:17,Sunyani,Sunyani,1
7.5908801,-1.9343555,233,"Techiman, Ghana,12/11/2015@17:25",Fire: FIRE SPECIAL SERVICE,11/12/2015 17:25,Techiman,Techiman,1
7.7419585,-2.1008486,233,"Wenchi, Ghana,12/11/2015@17:25",Traffic: DISABLED VEHICLE -,11/12/2015 17:25,Wenchi,Wenchi,1
6.5294782,-2.4999918,233,"Asunafo South, Ghana,12/11/2015@17:24",Traffic: DISABLED VEHICLE -,11/12/2015 17:24,,Asunafo South,1
6.9577082,-2.4208713,233,"Asutifi, Ghana,12/11/2015@17:25",Traffic: VEHICLE ACCIDENT -,11/12/2015 17:25,,Asutifi,1
7.6971099,-0.9820668,233,"Atebubu-Amantin, Ghana,12/11/2015@17:26",Traffic: VEHICLE ACCIDENT -,11/12/2015 17:26,,Atebubu Amantin,1
7.2144503,-2.6586401,233,"Dormaa East, Ghana,12/11/2015@17:26",EMS: UNKNOWN MEDICAL EMERGENCY,11/12/2015 17:26,,Dormaa East new,1
7.9072974,-2.6586401,233,"Jaman North, Ghana,12/11/2015@17:25",Traffic: VEHICLE ACCIDENT -,11/12/2015 17:25,,Jaman North,1
7.645665,-2.8178291,233,"Jaman South, Ghana,12/11/2015@17:31",EMS: FALL VICTIM,11/12/2015 17:31,,Jaman South,1
7.9118841,-1.7928402,233,"Kintampo South, Ghana,12/11/2015@17:32",Traffic: VEHICLE ACCIDENT -,11/12/2015 17:32,,Kintampo South,1
7.6952677,-1.5983959,233,"Nkoranza North, Ghana,12/11/2015@17:38",EMS: CARDIAC EMERGENCY,11/12/2015 17:38,,Nkoranza North,1
7.6952677,-1.5983959,233,"Nkoranza, Ghana,12/11/2015@17:37",EMS: SEIZURES,11/12/2015 17:37,,Nkoranza South,1
7.4752384,-2.341887,233,"Sunyani West, Ghana,12/11/2015@17:45",EMS: ASSAULT VICTIM,11/12/2015 17:45,,Sunyani West,1
6.5,-0.5,233,"Tain,brong Ahafo region, Ghana,12/11/2015@03:59
",EMS: HEAD INJURY,11/12/2015 17:43,Tain,Tain,1
7.2169497,-2.1843285,233,"Tano North Municipal, Ghana,12/11/2015@17:44",Traffic: DISABLED VEHICLE -,11/12/2015 17:44,,Tano North,1
7.2176693,-2.027319,233,"Tano South, Ghana,12/11/2015@17:44",Traffic: VEHICLE ACCIDENT -,11/12/2015 17:44,,Tano South,1
5.8775438,-0.2432307,233,"Akwapem South, Ghana,12/11/2015@17:44",Traffic: VEHICLE ACCIDENT -,11/12/2015 17:44,,Akuapim South,1
5.961207,-1.0011902,233,"Birim Central Municipal, Ghana,12/11/2015@17:43",Traffic: VEHICLE ACCIDENT -,11/12/2015 17:43,,Birim Central,1
6.1100744,-0.4879916,233,"East Akim, Ghana,12/11/2015@17:46",EMS: VEHICLE ACCIDENT,11/12/2015 17:46,,East Akim,1
6.513722,-0.7722974,233,"Kwahu West, Ghana,12/11/2015@17:46",Traffic: VEHICLE ACCIDENT -,11/12/2015 17:46,,Kwahu West,1
6.1313988,-0.3183792,233,"New-Juaben Municipal, Ghana,12/11/2015@17:44",Traffic: DISABLED VEHICLE -,11/12/2015 17:44,,New Juaben,1
5.9405114,-0.7152749,233,"West Akim, Ghana,12/11/2015@17:57",EMS: VEHICLE ACCIDENT,11/12/2015 17:57,,West Akim,1
5.9620725,-0.2057108,233,"Akwapem North, Ghana,12/11/2015@17:56",Fire: FIRE ALARM,11/12/2015 17:56,,Akuapim North,1
6.109183,-1.09694,233,"Akyem Mansa, Ghana,12/11/2015@17:59",EMS: UNRESPONSIVE SUBJECT,11/12/2015 17:59,,Akyemansa,1
6.365145,0.1120696,233,"Asuogyaman, Ghana,12/11/2015@17:58",Fire: BUILDING FIRE,11/12/2015 17:58,,Asuogyaman,1
6.4286151,-0.658333,233,"Atiwa East, Ghana,12/11/2015@18:00",Fire: VEHICLE FIRE,11/12/2015 18:00,,Atiwa,1
6.3854758,-1.0011902,233,"Birim North, Ghana,12/11/2015@17:57",EMS: VEHICLE ACCIDENT,11/12/2015 17:57,,Birim North,1
5.8765639,-1.0777723,233,"Birim South, Ghana,12/11/2015@17:46",Traffic: VEHICLE ACCIDENT -,11/12/2015 17:46,,Birim South,1
6.4502326,-0.3371889,233,"Fanteakwa, Ghana,12/11/2015@18:00",Traffic: VEHICLE FIRE -,11/12/2015 18:00,,Fanteakwa,1
6.2793723,-0.8675134,233,"Kwaebibirem, Ghana,12/11/2015@18:01",Fire: FIRE ALARM,11/12/2015 18:01,,Kwaebibirem,1
6.7059576,-0.7913227,233,"Kwahu East, Ghana,12/11/2015@18:05",Traffic: VEHICLE ACCIDENT -,11/12/2015 18:05,,Kwahu East,1
6.8779912,0.0373201,233,"Kwahu Afram Plains North, Ghana,12/11/2015@18:02",Traffic: VEHICLE ACCIDENT -,11/12/2015 18:02,,Kwahu North,1
6.6207436,-0.563609,233,"Kwahu South, Ghana,12/11/2015@18:04",EMS: WARRANT SERVICE,11/12/2015 18:04,,Kwahu South,1
6.1739113,-0.0186555,233,"Lower Manya, Ghana,12/11/2015@18:07",EMS: CHOKING,11/12/2015 18:07,,Lower Manya Krobo,1
5.9407571,-0.4879916,233,"Suhum/Kraboa/Coaltar, Ghana,12/11/2015@18:10",EMS: HEAD INJURY,11/12/2015 18:10,,Suhum/Kraboa/Coaltar,1
6.365145,-0.1120696,233,"Manya Krobo, Ghana,12/11/2015@18:07",EMS: SYNCOPAL EPISODE,11/12/2015 18:07,,Upper Manya Krobo,1
6.1738852,-0.1682271,233,"Yilo Krobo, Ghana,12/11/2015@18:08",Traffic: ROAD OBSTRUCTION -,11/12/2015 18:08,,Yilo Krobo,1
5.4527,7.5248,233,"Abia,ghana,12/11/2015@18:08",Traffic: VEHICLE ACCIDENT -,11/12/2015 18:08,Austin,Abia,1
5.5511744,-0.2526163,233,"Ablekuma, Accra, Ghana,12/11/2015@18:16",EMS: CARDIAC EMERGENCY,11/12/2015 18:16,Accra,Ablekuma,1
5.5393046,-0.5645506,233,"Aboansa, Ghana,12/11/2015@18:19",EMS: UNCONSCIOUS SUBJECT,11/12/2015 18:19,Aboansa,Aboansa,1
5.5603679,-0.2373658,233,"Abosseyokai, Accra, Ghana,12/11/2015@18:16",EMS: UNRESPONSIVE SUBJECT,11/12/2015 18:16,Accra,Abossey Okai,1
5.5630028,-0.2115709,233,"Adabraka, Accra, Ghana,12/11/2015@18:26",Traffic: VEHICLE ACCIDENT -,11/12/2015 18:26,Accra,Adabraka,1
5.7956296,-0.4856308,233,"Adeiso, Ghana,12/11/2015@18:28",Fire: UNKNOWN TYPE FIRE,11/12/2015 18:28,Adeiso,Adaiso,1
5.7299045,-0.5417858,233,"Adembra, Ghana,12/11/2015@18:35",EMS: CVA/STROKE,11/12/2015 18:35,Adembra,Adembra,1
5.7141674,-0.15418,233,"Adenta Municipality, Ghana,12/11/2015@18:31",EMS: BACK PAINS/INJURY,11/12/2015 18:31,Adenta Municipality,Adenta,1
5.7141674,-0.15418,233,"Adenta Municipality, Ghana,12/11/2015@18:39",EMS: VEHICLE ACCIDENT,11/12/2015 18:39,Adenta Municipality,Adentan,1
4.9367395,-1.7331991,233,"Adiembra, Sekondi-Takoradi, Ghana,12/11/2015@18:41",EMS: ALTERED MENTAL STATUS,11/12/2015 18:41,Sekondi-Takoradi,Adiembra,1
5.7351349,-0.3607137,233,"Adjen Kotoku, Ghana,12/11/2015@18:46",EMS: ASSAULT VICTIM,11/12/2015 18:46,Adjen Kotoku,Adzen Kotoku,1
6.0299775,0.9868468,233,"Anlo-Afiadenyigba, Ghana,12/11/2015@18:47",Fire: FIRE ALARM,11/12/2015 18:47,Anlo-Afiadenyigba,Afiadenyiba,1
5.7175919,-0.2869335,233,"Afiaman North, Near Awo Pomaa Academy through Pokuase or Amasaman, PP97+26P, Amasaman, Ghana,12/11/2015@18:47",Traffic: VEHICLE ACCIDENT -,11/12/2015 18:47,Amasaman,Afiaman,1
5.7958363,0.0023314,233,"Afienya, Ghana,12/11/2015@18:50",Traffic: DISABLED VEHICLE -,11/12/2015 18:50,Afienya,Afianya,1
5.7958363,0.0023314,233,"Afienya, Ghana,12/11/2015@19:00",Fire: FIRE INVESTIGATION,11/12/2015 19:00,Afienya,Afienya,1
5.637125,-0.350192,233,"Afuaman, Ghana,12/11/2015@19:00",EMS: UNRESPONSIVE SUBJECT,11/12/2015 19:00,Afuaman,Afuaman,1
5.6944159,-0.2021951,233,"Agbogba, Ghana,12/11/2015@19:09",Traffic: DISABLED VEHICLE -,11/12/2015 19:09,Agbogba,Agbogba,1
6.8778675,-1.6444975,233,"Ahenkro, Ghana,12/11/2015@19:09",Traffic: DISABLED VEHICLE -,11/12/2015 19:09,Ahenkro,Ahinkro,1
5.6222222,-0.5588889,233,"Ahireso, Ghana,12/11/2015@19:14",EMS: ALLERGIC REACTION,11/12/2015 19:14,,Ahireso,1
5.8,-0.31667,233,"ahunju,ghana,12/11/2015@19:17",EMS: FALL VICTIM,11/12/2015 19:17,North Andover,Ahunju,1
5.6510376,-0.1354586,233,"Adjiringanor, Madina, Ghana,12/11/2015@19:18",EMS: RESPIRATORY EMERGENCY,11/12/2015 19:18,Madina,Ajiringano,1
5.7867502,0.3537586,233,"Q9P3+PG2, Akplabnya, Ghana,12/11/2015@19:20",Traffic: VEHICLE ACCIDENT -,11/12/2015 19:20,Akplabnya,Akplabanya,1
5.6,-0.55,233,"Akrabong, Ghana,12/11/2015@19:23",EMS: CARDIAC EMERGENCY,11/12/2015 19:23,,Akrabong,1
5.517735,-0.541586,233,"531'03.9""N 032'29., Church St, Accra, Ghana,12/11/2015@19:22",Traffic: VEHICLE ACCIDENT -,11/12/2015 19:22,Accra,Akramang,1
5.9779631,-0.0886948,233,"Akropong, Ghana,12/11/2015@19:27",EMS: VEHICLE ACCIDENT,11/12/2015 19:27,Akropong,Akropong,1
5.2380492,-1.4507187,233,"Akutuase, Ghana,12/11/2015@19:29",Traffic: VEHICLE ACCIDENT -,11/12/2015 19:29,Akutuase,Akutuase,1
5.6130238,-0.2399401,233,"Akweteyman, Ghana,12/11/2015@19:30",Traffic: VEHICLE ACCIDENT -,11/12/2015 19:30,Akweteyman,Akweteman,1
4.8895117,7.3570576,233,"452103, Akwete, Nigeria,12/11/2015@19:35",EMS: VEHICLE ACCIDENT,11/12/2015 19:35,Akwete,Akweti,1
5.6595077,-0.2977044,233,"MP52+RW3, Unnamed Road, Accra, Ghana,12/11/2015@19:35",Fire: VEHICLE ACCIDENT,11/12/2015 19:35,Accra,Amamole,1
5.933333,-0.033333,233,"Amanfro, Ghana,12/11/2015@19:33",EMS: SEIZURES,11/12/2015 19:33,,Amanfro,1
5.7062137,-0.3019281,233,"Amasaman, Ghana,12/11/2015@19:33",EMS: VEHICLE ACCIDENT,11/12/2015 19:33,Amasaman,Amasaman,1
5.6,-0.55,233,"amedua,ghana,12/11/2015@19:33",Traffic: VEHICLE ACCIDENT -,11/12/2015 19:33,A Medua,Amedua,1
5.883333,-0.5,233,"Amlakpo, Ghana,12/11/2015@19:35",Traffic: VEHICLE ACCIDENT -,11/12/2015 19:35,Amlakpo,Amlakpo,1
5.7641739,-0.139333,233,"Amrahia, Ghana,12/11/2015@19:38",EMS: CARDIAC EMERGENCY,11/12/2015 19:38,Amrahia,Amrahia,1
5.433333,-3.916667,233,"Anyama, Cte d'Ivoire,12/11/2015@19:44",EMS: SEIZURES,11/12/2015 19:44,Anyama,Anyamam,1
5.5578958,-0.2321358,233,"Aplaku Rd, Accra, Ghana,12/11/2015@19:42",Traffic: VEHICLE ACCIDENT -,11/12/2015 19:42,Accra,Aplaku,1
5.2060156,-1.1700982,233,"2201 S Michigan Ave, Chicago, IL 60616, USA,12/11/2015@19:46",EMS: CARDIAC EMERGENCY,11/12/2015 19:46,Asebu,Asebu,1
5.6931346,-0.0326531,233,"1285 State Highway 16, Auckland 0883, New Zealand,12/11/2015@19:50",EMS: FRACTURE,11/12/2015 19:50,Tema,Ashaiman,1
5.6799653,-0.1377983,233,"Asebu, Ghana,12/11/2015@19:48",EMS: UNKNOWN MEDICAL EMERGENCY,11/12/2015 19:48,,Ashalebotwe,1
5.6799653,-0.1377983,233,"Ashaiman, Tema, Ghana,12/11/2015@19:49",EMS: FEVER,11/12/2015 19:49,,Ashaley Botwe,1
5.7062442,-0.2361929,233,"Ashaley Botwe, Ghana,12/11/2015@19:47",EMS: SEIZURES,11/12/2015 19:47,,Ashongman,1
5.7062442,-0.2361929,233,"Ashaley Botwe, Ghana,12/11/2015@19:50",EMS: VEHICLE ACCIDENT,11/12/2015 19:50,,Ashonman,1
5.6333333,-0.2833333,233,"Ashongman Estates, Ghana,12/11/2015@19:53",Traffic: VEHICLE ACCIDENT -,11/12/2015 19:53,,Asofaa,1
5.616667,-0.05,233,"Ashongman Estates, Ghana,12/11/2015@19:47",Fire: FIRE ALARM,11/12/2015 19:47,Sakumono,Asokrochona,1
5.7516294,-0.4339538,233,"Asofa, Ghana,12/11/2015@19:57",Traffic: DISABLED VEHICLE -,11/12/2015 19:57,Asuaba,Asuaba,1
6.2659807,-0.8746881,233,"Asokrochona, Sakumono, Ghana,12/11/2015@19:56",Traffic: VEHICLE ACCIDENT -,11/12/2015 19:56,Asuom,Asuom,1
7.9191111,8.3680648,233,"Asuaba, Ghana,12/11/2015@20:04",Fire: CARBON MONOXIDE DETECTOR,11/12/2015 20:04,Atakwa,Atakwa,1
54.95038,9.876871,233,"Asuom, Ghana,12/11/2015@20:11",Traffic: VEHICLE ACCIDENT -,11/12/2015 20:11,Augustenborg,Augustinesborg,1
5.5866078,-0.2772644,233,"970105, Atakwa, Nigeria,12/11/2015@20:18",EMS: VEHICLE ACCIDENT,11/12/2015 20:18,Awoshie,Awoshi,1
5.6794428,-0.3520788,233,"6440 Augustenborg, Denmark,12/11/2015@20:29",Traffic: VEHICLE ACCIDENT -,11/12/2015 20:29,Amasaman,Ayikaidoblo,1
5.7821601,-0.182158,233,"Awoshie, Ghana,12/11/2015@20:27",Fire: S/B AT HELICOPTER LANDING,11/12/2015 20:27,Accra,Ayimensa,1
5.780027,0.2707566,233,"MJHX+Q5F, ayikai doblo, Amasaman, Ghana,12/11/2015@20:28",EMS: HEMORRHAGING,11/12/2015 20:28,Ayitepa,Ayitepa,1
5.82513,0.4921194,233,"Ayi Mensah, Oyarifa Rd, Accra, Ghana,12/11/2015@20:33",Fire: FIRE ALARM,11/12/2015 20:33,Ayonukope,Ayonukope,1
6.7065762,-1.6299338,233,"Ayitepa, Ghana,12/11/2015@20:35",EMS: ABDOMINAL PAINS,11/12/2015 20:35,Kumasi,Bantama,1
5.6810318,-0.5553314,233,"Ayonukope, Ghana,12/11/2015@20:37",EMS: CARDIAC EMERGENCY,11/12/2015 20:37,Bawjiasi,Bawjiasi,1
5.9649918,-1.9968876,233,"Szolnok, Szapry u. 16, 5000 Hungary,12/11/2015@20:54",Traffic: VEHICLE ACCIDENT -,11/12/2015 20:54,Bebianiha,Bebianiha,1
5.7598649,-0.2253516,233,"Bantama, Kumasi, Ghana,12/11/2015@21:00",Traffic: VEHICLE ACCIDENT -,11/12/2015 21:00,Berekuso,Berekuso,1
5.5572433,-1.1959141,233,"Bawjiasi, Ghana,12/11/2015@20:58",Traffic: DISABLED VEHICLE -,11/12/2015 20:58,Besease,Besease,1
6.890697,-1.2494244,233,"Bebianiha, Ghana,12/11/2015@21:02",Traffic: VEHICLE ACCIDENT -,11/12/2015 21:02,Eduamuyao,Bodomasi,1
5.5117764,-0.3348372,233,"Berekuso, Ghana,12/11/2015@21:01",Fire: VEHICLE ACCIDENT,11/12/2015 21:01,Bortianor,Bortianor,1
5.7783333,-0.4111111,233,"Besease, Ghana,12/11/2015@21:10",Traffic: VEHICLE ACCIDENT -,11/12/2015 21:10,,Botokura,1
5.8757608,0.5602798,233,"Biyasi, Silkhera, Uttarakhand 246161, India,12/11/2015@21:13",EMS: SUBJECT IN PAIN,11/12/2015 21:13,Bwetakope,Bwetakope,1
5.6095776,-0.2563959,233,"VQR2+76G, Eduamuyao, Ghana,12/11/2015@21:01",EMS: MEDICAL ALERT ALARM,11/12/2015 21:01,,Chantan,1
-6.6804115,15.2194808,233,"Bortianor, Ghana,12/11/2015@21:21",Traffic: DISABLED VEHICLE -,11/12/2015 21:21,,Damba,1
5.7589264,-0.1612029,233,"Botokura, Ghana,12/11/2015@21:11",Traffic: DISABLED VEHICLE -,11/12/2015 21:11,Danfa,Danfa,1
5.7563128,0.0513246,233,"Bukor, Serbia,12/11/2015@21:34",EMS: RESPIRATORY EMERGENCY,11/12/2015 21:34,Dawhenya,Dawhwenya,1
5.6907934,-0.3541666,233,"Bwetakope, Ghana,12/11/2015@21:46",Traffic: DISABLED VEHICLE -,11/12/2015 21:46,Accra,Doblogonno,1
5.8049747,-0.3148533,233,"Chantan St, Ghana,12/11/2015@21:49",Traffic: VEHICLE ACCIDENT -,11/12/2015 21:49,Doboro,Doboro,1
7.0524369,-1.9303,233,"Dadia 684 00, Greece,12/11/2015@21:53",EMS: VEHICLE ACCIDENT,11/12/2015 21:53,Domeabra,Domeabra,1
5.783333,0.566667,233,"Damba, Angola,12/11/2015@22:00",Traffic: VEHICLE ACCIDENT -,11/12/2015 22:00,Ada Foah,Elavanyo,1
5.5773983,-0.3136781,233,"Danfa, Ghana,12/11/2015@22:08",Fire: VEHICLE ACCIDENT,11/12/2015 22:08,Gbawe,Gbawe,1
5.5271997,-0.2636424,233,"Dawhenya, Ghana,12/11/2015@22:19",EMS: RESPIRATORY EMERGENCY,11/12/2015 22:19,Accra,Gbegbeyise,1
5.5831636,-0.2301488,233,"MJRW+888, Accra, Ghana,12/11/2015@22:18",EMS: RESPIRATORY EMERGENCY,11/12/2015 22:18,Accra,Greda Estate,1
5.6694251,-0.203367,233,"Doboro, Ghana,12/11/2015@22:20",Traffic: VEHICLE ACCIDENT -,11/12/2015 22:20,Haatso,Haatso,1
5.7923591,0.4567233,233,"Domeabra, Ghana,12/11/2015@22:28",Traffic: VEHICLE ACCIDENT -,11/12/2015 22:28,Kablevu,Kablevu,1
8.5013508,76.9623282,233,"Nato Yolu, nn Cad(18 Mart Cad). No:23 K:1 Y, Yukar Dudullu, 34775 Dudullu/mraniye/stanbul, Turkey,12/11/2015@22:29",EMS: UNKNOWN MEDICAL EMERGENCY,11/12/2015 22:29,Thiruvananthapuram,Kase,1
3.8511853,16.306648,233,"Elavanyo, Ada Foah, Ghana,12/11/2015@22:30",EMS: CARDIAC EMERGENCY,11/12/2015 22:30,Katakpo,Katakpo,1
5.7510448,-0.0559939,233,"Gbawe, Ghana,12/11/2015@22:50",EMS: UNKNOWN MEDICAL EMERGENCY,11/12/2015 22:50,,Katamanso,1
-0.023559,37.906193,233,"GPGP+VGH, Dansoman High St, Accra, Ghana,12/11/2015@22:50",EMS: HEAD INJURY,11/12/2015 22:50,,Kenya,1
6.216667,-2.583333,233,"Greda Estate 4th avenue, Accra, Ghana,12/11/2015@22:48",Traffic: VEHICLE ACCIDENT -,11/12/2015 22:48,,Kojokrom,1
5.4999558,-0.3665972,233,"1519 Av. de la Constitucin Suite 705, San Juan, 00909, Puerto Rico,12/11/2015@22:51",EMS: HEAD INJURY,11/12/2015 22:51,Kokrobite,Kokrobite,1
5.8589358,0.4205294,233,"Haatso, Ghana,12/11/2015@22:51",Fire: FIRE ALARM,11/12/2015 22:51,Koloidaw,Koloidaw,1
5.6931333,0.0513246,233,"Chania, Greece,12/11/2015@22:52",Traffic: VEHICLE ACCIDENT -,11/12/2015 22:52,Tema,Kpone,1
6.1606494,0.0583287,233,"Hobor, Qahar Right Middle Banner, Ulanqab, Inner Mongolia, China, 013550,12/11/2015@22:54",EMS: FALL VICTIM,11/12/2015 22:54,Kpong,Kponguno,1
5.9592991,-1.485243,233,"Kablevu, Ghana,12/11/2015@22:52",Fire: GAS-ODOR/LEAK,11/12/2015 22:52,Krodua,Krodua,1
5.4417393,-1.6204744,233,"3rd, Carmel Towers, Cotton Hill, Vazhuthacaud, Thiruvananthapuram, Kerala 695014, India,12/11/2015@23:09",Traffic: HAZARDOUS ROAD CONDITIONS -,11/12/2015 23:09,,Kubekro,1
5.6844172,-0.2537157,233,"Katakpo, Central African Republic,12/11/2015@23:12",EMS: MATERNITY,11/12/2015 23:12,Kwabenya,Kwabenya,1
5.6844172,-0.2537157,233,"Kpone Katamanso, Ghana,12/11/2015@23:15",EMS: CARDIAC EMERGENCY,11/12/2015 23:15,Kwabenya,Kwabenyan,1
6.9755866,-1.272254,233,"Kenya,12/11/2015@23:40",EMS: ABDOMINAL PAINS,11/12/2015 23:40,Kwaman,Kwamang,1
5.5937587,-0.2690565,233,"1035 Cerise Rd, Billings, MT 59101, USA,12/11/2015@23:39",EMS: ABDOMINAL PAINS,11/12/2015 23:39,Kwashieman,Kwasiman,1
5.6847539,-0.0379152,233,"Kojokrom, Ghana,12/11/2015@23:46",EMS: CARDIAC EMERGENCY,11/12/2015 23:46,Lashibi,Lashibi,1
5.6506394,-0.1870506,233,"Kokrobite, Ghana,12/11/2015@23:58",Traffic: VEHICLE ACCIDENT -,11/12/2015 23:58,Accra,Legon,1
5.6069436,-0.2177452,233,"4717 W Main St, Belleville, IL 62226, USA,12/12/2015@00:15",EMS: DIABETIC EMERGENCY,12/12/2015 0:15,Accra,Manhean,1
7.8609333,-2.6809935,233,"Kozhikode, Kerala, India,12/12/2015@00:25",EMS: UNCONSCIOUS SUBJECT,12/12/2015 0:25,Mayera,Mayera,1
5.6731273,-0.1663851,233,"Koloidaw, Ghana,12/12/2015@00:29",EMS: ALTERED MENTAL STATUS,12/12/2015 0:29,Madina,Medina Estates,1
5.5570219,-0.2969708,233,"Kpone, Tema, Ghana,12/12/2015@00:36",Fire: FIRE ALARM,12/12/2015 0:36,Accra,Mendskrom,1
5.7902559,-0.5943697,233,"Kpong, Ghana,12/12/2015@00:46",EMS: RESCUE - GENERAL,12/12/2015 0:46,Mepom,Mepom,1
5.716667,0.016667,233,"Krodua, Ghana,12/12/2015@00:51",Fire: RESCUE - GENERAL,12/12/2015 0:51,Tema,Mlichakpo,1
5.5289308,-0.26451,233,"Kubekro, Ghana,12/12/2015@00:59",Traffic: VEHICLE FIRE -,12/12/2015 0:59,Accra,Mpoase,1
5.5464341,-0.3102637,233,"Kwabenya, Ghana,12/12/2015@01:04",EMS: VEHICLE ACCIDENT,12/12/2015 1:04,,New Tetegbu,1
5.7404865,-0.1775946,233,"Kwabenya, Ghana,12/12/2015@01:09",Fire: VEHICLE FIRE,12/12/2015 1:09,,Nkwantanang,1
5.6825806,-0.1916501,233,"Kwaman, Ghana,12/12/2015@01:06",EMS: CARDIAC EMERGENCY,12/12/2015 1:06,,North Legon,1
5.5339826,-0.2553873,233,"Kwashieman, Ghana,12/12/2015@01:33",Traffic: VEHICLE ACCIDENT -,12/12/2015 1:33,Accra,Nsakyina,1
5.7850644,-0.3503126,233,"Lashibi, Ghana,12/12/2015@01:46",Traffic: DISABLED VEHICLE -,12/12/2015 1:46,Nsawam,Nsumia,1
5.4612771,-0.4288638,233,"Legon, Accra, Ghana,12/12/2015@02:02",Fire: FIRE ALARM,12/12/2015 2:02,Kasoa,Nyanyanu,1
5.7457079,-0.037465,233,"77 Willoughby Rd, Crows Nest NSW 2065, Australia,12/12/2015@02:07",Traffic: DISABLED VEHICLE -,12/12/2015 2:07,,Obeye,1
5.5587665,-0.2464053,233,"Manhean Loop Rd, Accra, Ghana,12/12/2015@02:34",EMS: CARDIAC EMERGENCY,12/12/2015 2:34,Accra,Oblogo,1
6.2012073,-1.6912512,233,"Mayera, Ghana,12/12/2015@02:34",EMS: HEAD INJURY,12/12/2015 2:34,Obuasi,Oboasi,1
5.6038889,-0.5836111,233,"Madina, Ghana,12/12/2015@02:47",EMS: NAUSEA/VOMITING,12/12/2015 2:47,,Obotumfo,1
5.654708,-0.5813527,233,"HP43+R62, Accra, Ghana,12/12/2015@03:05",Fire: FIRE ALARM,12/12/2015 3:05,Obrachere,Obrachere,1
6.2012073,-1.6912512,233,"Mepom, Ghana,12/12/2015@03:03",EMS: FALL VICTIM,12/12/2015 3:03,Obuasi,Obuasi,1
7.9406486,-2.0493652,233,"Mlichakpo, Tema, Ghana,12/12/2015@03:03",Traffic: VEHICLE ACCIDENT -,12/12/2015 3:03,Subinso,Subinso,1
6.6959775,-1.6008211,233,"Mpoase, Accra, Ghana,12/12/2015@03:15",EMS: HEMORRHAGING,12/12/2015 3:15,Kumasi,Aboabo,1
7.7407739,-2.0652942,233,"Tetegu Rd, Ghana,12/12/2015@03:22",EMS: VEHICLE ACCIDENT,12/12/2015 3:22,Subinja,Subinja ,1
7.7419585,-2.1008486,233,"La-Nkwantanang-Madina, Ghana,12/12/2015@03:21",Traffic: VEHICLE ACCIDENT -,12/12/2015 3:21,Wenchi,Wenchi ,1
7.6711671,-1.9604109,233,"North Legon, Ghana,12/12/2015@03:22",Traffic: VEHICLE ACCIDENT -,12/12/2015 3:22,Booyem,Booyem ,1
7.7025796,-2.1069816,233,"Nsakina St, Accra, Ghana,12/12/2015@03:22",Traffic: VEHICLE ACCIDENT -,12/12/2015 3:22,Droboso,Droboso ,1
7.6892385,-2.1062215,233,"Nsumia,, QJPX+2VF, Nsawam, Ghana,12/12/2015@03:36",EMS: UNKNOWN MEDICAL EMERGENCY,12/12/2015 3:36,Koase,Koase ,1
7.6727554,-2.1045283,233,"FH6C+GF6, Nana Dawa Rd, Kasoa, Ghana,12/12/2015@03:50",EMS: VEHICLE ACCIDENT,12/12/2015 3:50,Nkonsia,Nkonsia ,1
5.6142231,-0.1963364,233,"13400 Aubagne, France,12/12/2015@03:56",Traffic: VEHICLE ACCIDENT -,12/12/2015 3:56,Accra,Ayaaso ,1
7.7668747,-2.0003885,233,"Obeye, Ghana,12/12/2015@04:14",Fire: FIRE ALARM,12/12/2015 4:14,Offuman,Offuman ,1
7.7668747,-2.0003885,233,"Oblogo Rd, Accra, Ghana,12/12/2015@04:32",EMS: FALL VICTIM,12/12/2015 4:32,Offuman,Ofuman ,1
7.8074088,-1.9111908,233,"Obuasi, Ghana,12/12/2015@04:32",Traffic: DISABLED VEHICLE -,12/12/2015 4:32,Agyina,Agyina ,1
7.8947034,-1.9832594,233,"Obotumfo, Ghana,12/12/2015@04:39",Traffic: HAZARDOUS ROAD CONDITIONS -,12/12/2015 4:39,Nkyeraa,Nkyeraa ,1
7.8973326,-1.8752793,233,"Obrachere, Ghana,12/12/2015@04:42",Traffic: VEHICLE ACCIDENT -,12/12/2015 4:42,Anyima,Anyima ,1
8.0765741,-1.8257384,233,"Obuasi, Ghana,12/12/2015@05:05",EMS: SEIZURES,12/12/2015 5:05,Asante Kwaa,Asante Kwaa ,1
47.218371,-1.553621,233,"Subinso, Ghana,12/12/2015@05:13",EMS: RESPIRATORY EMERGENCY,12/12/2015 5:13,Nantes,Nante ,1
8.0592612,-1.7295503,233,"Aboabo, Kumasi, Ghana,12/12/2015@05:25",EMS: ASSAULT VICTIM,12/12/2015 5:25,Kintampo,Kintampo ,1
7.9747433,-1.8167735,233,"Subinja, Ghana,12/12/2015@05:22",Traffic: VEHICLE ACCIDENT -,12/12/2015 5:22,Krabonso,Krabonso ,1
7.9016631,-1.7695721,233,"Wenchi, Ghana,12/12/2015@05:22",EMS: RESPIRATORY EMERGENCY,12/12/2015 5:22,Jema,Jema ,1
7.8358463,-1.7935718,233,"Booyem, Ghana,12/12/2015@05:33",EMS: CARDIAC EMERGENCY,12/12/2015 5:33,Pamdu,Pamdu ,1
-3.916667,28.983333,233,"Droboso, Ghana,12/12/2015@05:22",EMS: UNRESPONSIVE SUBJECT,12/12/2015 5:22,Moaso,Moaso ,1
7.6602743,-1.8696411,233,"Koase, Ghana,12/12/2015@05:39",Fire: FIRE ALARM,12/12/2015 5:39,Tanoboase,Tanoboase ,1
7.6370647,-1.9074814,233,"Nkonsia, Ghana,12/12/2015@05:22",Fire: FIRE ALARM,12/12/2015 5:22,Tuobodom,Tuobodom ,1
7.6711671,-1.9604109,233,"Ayawaso, Accra, Ghana,12/12/2015@05:22",EMS: CARDIAC EMERGENCY,12/12/2015 5:22,Booyem,Booyem ,1
5.6142231,-0.1963364,233,"Offuman, Ghana,12/12/2015@05:51",Traffic: VEHICLE ACCIDENT -,12/12/2015 5:51,Accra,Ayaaso ,1
6.1183238,-1.6663523,233,"Offuman, Ghana,12/12/2015@06:14",Fire: GAS-ODOR/LEAK,12/12/2015 6:14,Amankyim,Akrofom ,1
7.5701975,-2.0163,233,"Agyina, Ghana,12/12/2015@06:22",EMS: CARDIAC EMERGENCY,12/12/2015 6:22,Agosa,Agosa ,1
7.5557864,-2.0585543,233,"Nkyeraa, Ghana,12/12/2015@06:39",Fire: FIRE ALARM,12/12/2015 6:39,Koofoso,Koofoso ,1
7.0128913,-1.3782775,233,"21530 Gledhill St, Chatsworth, CA 91311, USA,12/12/2015@07:00",EMS: CARDIAC EMERGENCY,12/12/2015 7:00,Nsuta,Nsuta ,1
7.5320238,-2.0750995,233,"Anyima, Ghana,12/12/2015@07:00",EMS: HEMORRHAGING,12/12/2015 7:00,Srapukrom,Srapukrom ,1
7.4992396,-2.1413415,233,"12th Flr. The Trade & Financial Tower U1206, 32nd Street, 7th Ave, Taguig, 1634 Metro Manila, Philippines,12/12/2015@07:01",Fire: GAS-ODOR/LEAK,12/12/2015 7:01,Malaamkrom,Malaamkrom ,1
7.5600261,-2.1622158,233,"Asante Kwaa, Ghana,12/12/2015@07:03",EMS: ALTERED MENTAL STATUS,12/12/2015 7:03,Tromeso,Tromeso,1
7.6157237,-2.1266126,233,"Nantes, France,12/12/2015@07:07",EMS: CARDIAC EMERGENCY,12/12/2015 7:07,Aiyaiyu,Aiyaiyu ,1
7.4413272,-2.0854407,233,"Kintampo, Ghana,12/12/2015@07:14",EMS: UNCONSCIOUS SUBJECT,12/12/2015 7:14,Takwaim,Takwaim ,1
7.5500134,-1.9772438,233,"Krabonso, Ghana,12/12/2015@07:16",EMS: CARDIAC EMERGENCY,12/12/2015 7:16,Nkwaiso,Nkwaiso ,1
7.5556631,-1.9367994,233,"Jema, Ghana,12/12/2015@07:30",Traffic: VEHICLE ACCIDENT -,12/12/2015 7:30,Hansua,Hansua ,1
7.5271595,-1.9551331,233,"Pamdu, Ghana,12/12/2015@07:35",EMS: GENERAL WEAKNESS,12/12/2015 7:35,Tadeeso,Tadeeso ,1
6.6983113,-1.6906291,233,"Moaso, Democratic Republic of the Congo,12/12/2015@07:32",EMS: FALL VICTIM,12/12/2015 7:32,Kumasi,Tanoso ,1
7.6602743,-1.8696411,233,"Tanoboase, Ghana,12/12/2015@07:36",EMS: GENERAL WEAKNESS,12/12/2015 7:36,Tanoboase,Tanoboase ,1
7.5911952,-1.856877,233,"Tuobodom, Ghana,12/12/2015@07:43",Traffic: VEHICLE ACCIDENT -,12/12/2015 7:43,Forikrom,Forikrom ,1
7.6698656,-1.8125445,233,"Booyem, Ghana,12/12/2015@07:46",EMS: UNCONSCIOUS SUBJECT,12/12/2015 7:46,Kranka,Kranka ,1
7.6933321,-1.7477976,233,"Ayawaso, Accra, Ghana,12/12/2015@07:58",EMS: MEDICAL ALERT ALARM,12/12/2015 7:58,Yefri,Yefri ,1
7.8097878,-1.4791632,233,"Amankyim, Ghana,12/12/2015@08:13",EMS: CVA/STROKE,12/12/2015 8:13,Tanfiano,Tanfiano ,1
7.6571942,-1.7346768,233,"Agosa, Ghana,12/12/2015@08:34",EMS: VEHICLE ACCIDENT,12/12/2015 8:34,Pinehi,Pinehi ,1
7.7193298,-1.6930787,233,"Koofoso, Ghana,12/12/2015@08:35",Traffic: VEHICLE ACCIDENT -,12/12/2015 8:35,Boabeng,Boabeng ,1
7.6868995,-1.6590662,233,"Nsuta, Ghana,12/12/2015@08:44",Traffic: DISABLED VEHICLE -,12/12/2015 8:44,Busunya,Busunya ,1
7.6640578,-1.6020337,233,"Srapukrom, Ghana,12/12/2015@08:56",Traffic: DISABLED VEHICLE -,12/12/2015 8:56,Boaman,Boaman ,1
7.8987924,-1.7166851,233,"Malaamkrom, Ghana,12/12/2015@09:05",Traffic: VEHICLE ACCIDENT -,12/12/2015 9:05,Chirehi,Chirehi ,1
6.0572276,-2.5711925,233,"Tromeso, Ghana,12/12/2015@09:07",EMS: VEHICLE ACCIDENT,12/12/2015 9:07,Asantekrom,Asantekrom,1
7.9972832,-1.5474988,233,"Aiyaiyu, Ghana,12/12/2015@09:08",Traffic: VEHICLE ACCIDENT -,12/12/2015 9:08,Apesika,Apesika ,1
7.9701136,-1.3282446,233,"Takwaim, Ghana,12/12/2015@09:19",EMS: HEMORRHAGING,12/12/2015 9:19,Zabrama,Zabrama ,1
6.4553249,-1.3119816,233,"Nkwaiso, Ghana,12/12/2015@09:22",EMS: UNKNOWN MEDICAL EMERGENCY,12/12/2015 9:22,Beposo,Beposo,1
7.9505877,-1.2566141,233,"Hansua, Ghana,12/12/2015@09:30",Traffic: VEHICLE ACCIDENT -,12/12/2015 9:30,Adapdrase,Adapdrase ,1
7.958976,-1.1821036,233,"Tadeeso, Ghana,12/12/2015@09:30",Traffic: VEHICLE ACCIDENT -,12/12/2015 9:30,Abease,Abease ,1
8.0568371,-1.2710508,233,"Tanoso, Kumasi, Ghana,12/12/2015@09:40",Traffic: VEHICLE ACCIDENT -,12/12/2015 9:40,Kamompa,Kamompa ,1
7.7762347,-1.3433085,233,"Provincia de Puntarenas, Chira, Costa Rica,12/12/2015@09:44",Traffic: VEHICLE ACCIDENT -,12/12/2015 9:44,Fakwasi,Fakwasi ,1
7.5593118,-1.710095,233,"Tanoboase, Ghana,12/12/2015@09:42",EMS: EMS SPECIAL SERVICE,12/12/2015 9:42,Nkoranza,Nkoranza ,1
7.3727017,-2.3172324,233,"Forikrom, Ghana,12/12/2015@09:54",Traffic: VEHICLE ACCIDENT -,12/12/2015 9:54,Odumase,Odumase ,1
7.530501,-1.8062402,233,"Kranka, Ghana,12/12/2015@09:57",Traffic: VEHICLE ACCIDENT -,12/12/2015 9:57,Dotobaa,Bonsu dotobaa ,1
7.4969344,-1.7417143,233,"Yefri, Ghana,12/12/2015@10:10",EMS: SUBJECT IN PAIN,12/12/2015 10:10,Nkwabeng,Nkwabeng ,1
7.4845952,-1.6447862,233,"Lake Bodom, Espoo, Finland,12/12/2015@10:09",EMS: ALTERED MENTAL STATUS,12/12/2015 10:09,Aiyerade,Aiyerade ,1
7.4323493,-1.6590662,233,"Tanfiano, Ghana,12/12/2015@10:17",Traffic: VEHICLE ACCIDENT -,12/12/2015 10:17,Donkronkwanta,Donkronkwanta ,1
7.4288724,-1.4238551,233,"Pinehi, Ghana,12/12/2015@10:24",EMS: SYNCOPAL EPISODE,12/12/2015 10:24,Memimaso,Memimaso ,1
7.3847202,-1.3589807,233,"109 1st Ave., New York, NY 10003, USA,12/12/2015@10:21",EMS: CARDIAC EMERGENCY,12/12/2015 10:21,Ejura,Ejura,1
7.3399999,-1.5147561,233,"Boabeng, Ghana,12/12/2015@10:25",EMS: ALTERED MENTAL STATUS,12/12/2015 10:25,Afrante,Afrante ,1
8.5013508,76.9623282,233,"Busunya, Ghana,12/12/2015@10:22",Fire: FIRE ALARM,12/12/2015 10:22,Thiruvananthapuram,Kase ,1
7.5420312,-1.2049233,233,"Boaman, Ghana,12/12/2015@10:24",Traffic: VEHICLE ACCIDENT -,12/12/2015 10:24,Amantin,Amantin ,1
7.6518188,-1.1917104,233,"Chirehi, Ghana,12/12/2015@10:25",Traffic: VEHICLE ACCIDENT -,12/12/2015 10:25,Fanfao,Fanfao ,1
7.6703603,-2.7705136,233,"Asantekrom, Ghana,12/12/2015@10:30",EMS: VEHICLE ACCIDENT,12/12/2015 10:30,Fawoman,Fawoman ,1
6.7280488,-1.6056718,233,"Akora Khattak, Nowshera, Khyber Pakhtunkhwa, Pakistan,12/12/2015@10:29",Traffic: VEHICLE ACCIDENT -,12/12/2015 10:29,Kumasi,Abuokrom ,1
7.9767616,-2.4233417,233,"Apesika, Ghana,12/12/2015@10:30",EMS: FIRE SPECIAL SERVICE,12/12/2015 10:30,Brohani,Brohani ,1
7.8739741,-2.3147677,233,"Zabrama, Ghana,12/12/2015@10:32",EMS: HEMORRHAGING,12/12/2015 10:32,Nsawkaw, Nsawkaw ,1
7.7419585,-2.1008486,233,"Beposo, Ghana,12/12/2015@10:31",Fire: FIRE SPECIAL SERVICE,12/12/2015 10:31,Wenchi,Wenchi ,1
7.7207237,-2.5173175,233,"Adapdrase, Ghana,12/12/2015@10:34",Fire: GAS-ODOR/LEAK,12/12/2015 10:34,Seikwa,Seikwa ,1
7.1424612,-1.6408561,233,"Abease, Ghana,12/12/2015@10:32",EMS: CARDIAC EMERGENCY,12/12/2015 10:32,Kyekyewere,Kyekyewere ,1
8.1645625,-2.3557099,233,"Kamompa, Ghana,12/12/2015@10:38",Traffic: VEHICLE ACCIDENT -,12/12/2015 10:38,Banda Ahenkro,Banda Ahenkro ,1
7.2670619,-2.8676861,233,"Fakwasi, Ghana,12/12/2015@10:30",Traffic: VEHICLE ACCIDENT -,12/12/2015 10:30,Dormaa Ahenkro,Dormaa ahenkro ,1
7.319063,-2.7406546,233,"Nkoranza, Ghana,12/12/2015@10:44",Fire: FIRE INVESTIGATION,12/12/2015 10:44,DormaaAkwamu,DormaaAkwamu ,1
5.4612771,-0.4288638,233,"Odumase, Ghana,12/12/2015@10:42",EMS: FALL VICTIM,12/12/2015 10:42,Kasoa,Nyanyanu,1
5.7457079,-0.037465,233,"Dotobaa, Ghana,12/12/2015@10:44",Fire: VEHICLE ACCIDENT,12/12/2015 10:44,,Obeye,1
5.5587665,-0.2464053,233,"Nkwabeng, Ghana,12/12/2015@10:49",EMS: UNRESPONSIVE SUBJECT,12/12/2015 10:49,Accra,Oblogo,1
6.2012073,-1.6912512,233,"Aiyerade, Ghana,12/12/2015@10:54",EMS: VEHICLE ACCIDENT,12/12/2015 10:54,Obuasi,Oboasi,1
5.6038889,-0.5836111,233,"Donkronkwanta, Ghana,12/12/2015@10:55",Traffic: VEHICLE ACCIDENT -,12/12/2015 10:55,,Obotumfo,1
5.654708,-0.5813527,233,"Memimaso, Ghana,12/12/2015@10:58",Fire: FIRE ALARM,12/12/2015 10:58,Obrachere,Obrachere,1
6.2012073,-1.6912512,233,"Ejura, Ghana,12/12/2015@11:01",EMS: UNRESPONSIVE SUBJECT,12/12/2015 11:01,Obuasi,Obuasi,1
5.5012169,-0.511152,233,"Afrante, Ghana,12/12/2015@11:10",EMS: DIZZINESS,12/12/2015 11:10,Obutu,Obutu,1
5.5804557,-0.2633237,233,"3rd, Carmel Towers, Cotton Hill, Vazhuthacaud, Thiruvananthapuram, Kerala 695014, India,12/12/2015@11:14",EMS: HEAD INJURY,12/12/2015 11:14,Accra,Odorkor,1
7.3727017,-2.3172324,233,"Amantin, Ghana,12/12/2015@11:20",EMS: FALL VICTIM,12/12/2015 11:20,Odumase,Odumase,1
5.3416984,-1.0087109,233,"Fanfao, Ghana,12/12/2015@11:20",Fire: S/B AT HELICOPTER LANDING,12/12/2015 11:20,Odumasi,Odumasi,1
5.6634097,-0.2653998,233,"Fawoman, Ghana,12/12/2015@11:22",Fire: GAS-ODOR/LEAK,12/12/2015 11:22,Taifa,Ofankor,1
5.6660429,-0.1443824,233,"Buokurom, Kumasi, Ghana,12/12/2015@11:22",EMS: FALL VICTIM,12/12/2015 11:22,Ogbodjo,Ogbojo,1
5.6300117,-0.1167463,233,"Brohani, Ghana,12/12/2015@11:33",Fire: FIRE ALARM,12/12/2015 11:33,Accra,Okpoi Gonno,1
7.8455588,4.4928531,233,"Nsawkaw, Ghana,12/12/2015@11:31",EMS: NAUSEA/VOMITING,12/12/2015 11:31,Ilobu,Olobu,1
5.569752,-0.545408,233,"Wenchi, Ghana,12/12/2015@11:36",Traffic: ROAD OBSTRUCTION -,12/12/2015 11:36,Onyachia,Onyachia,1
5.5025867,-0.3524784,233,"Seikwa, Ghana,12/12/2015@11:38",Traffic: ROAD OBSTRUCTION -,12/12/2015 11:38,Oshiyie,Oshiyie,1
5.5750842,-0.2524524,233,"Kyekyewere, Ghana,12/12/2015@11:41",Fire: FIRE SPECIAL SERVICE,12/12/2015 11:41,Accra,Otaten,1
6.5659435,-2.9013416,233,"Banda Ahenkro, Ghana,12/12/2015@11:44",Traffic: VEHICLE ACCIDENT -,12/12/2015 11:44,Papasi,Papasi,1
5.700273,-0.302078,233,"Dormaa Ahenkro, Ghana,12/12/2015@11:43",Traffic: VEHICLE ACCIDENT -,12/12/2015 11:43,,Pokuase,1
5.7247051,0.1167463,233,"DormaaAkwamu, Ghana,12/12/2015@11:47",Traffic: VEHICLE ACCIDENT -,12/12/2015 11:47,Prampram,Prampram,1
5.5754558,-0.2742955,233,"FH6C+GF6, Nana Dawa Rd, Kasoa, Ghana,12/12/2015@11:53",Traffic: VEHICLE ACCIDENT -,12/12/2015 11:53,Accra,Sakaman,1
5.6149107,-0.0484066,233,"Obeye, Ghana,12/12/2015@11:57",EMS: CARDIAC EMERGENCY,12/12/2015 11:57,Sakumono,Sakumona,1
5.7002829,-0.8323082,233,"Oblogo Rd, Accra, Ghana,12/12/2015@12:00",EMS: UNKNOWN MEDICAL EMERGENCY,12/12/2015 12:00,Santeo,Santeo,1
5.7277135,-0.31514,233,"Obuasi, Ghana,12/12/2015@11:58",Traffic: VEHICLE ACCIDENT -,12/12/2015 11:58,Amasaman,Sapeman,1
5.8827593,0.3607137,233,"Obotumfo, Ghana,12/12/2015@11:57",EMS: ALLERGIC REACTION,12/12/2015 11:57,Sege,Sege,1
5.6250943,-0.2724254,233,"Obrachere, Ghana,12/12/2015@12:06",EMS: FALL VICTIM,12/12/2015 12:06,Sowutoum,Sotuom,1
6.0005212,0.4680149,233,"Obuasi, Ghana,12/12/2015@12:07",Fire: FIRE ALARM,12/12/2015 12:07,,Wuonyi,1
5.6694595,-0.0349866,233,"Obutu, Ghana,12/12/2015@12:11",Traffic: VEHICLE ACCIDENT -,12/12/2015 12:11,Tema,Tema Community 12,1
5.653682,0.0256537,233,"Odorkor, Accra, Ghana,12/12/2015@12:15",EMS: SYNCOPAL EPISODE,12/12/2015 12:15,Tema,Tema New Town,1
5.7348119,0.0302354,233,"Odumase, Ghana,12/12/2015@12:25",EMS: VEHICLE ACCIDENT,12/12/2015 12:25,Tema,Tema,1
5.5464341,-0.3102637,233,"Odumasi, Ghana,12/12/2015@12:34",Traffic: VEHICLE ACCIDENT -,12/12/2015 12:34,,Tetegbu,1
5.7853814,0.5266685,233,"Ofankor, Taifa, Ghana,12/12/2015@12:33",Traffic: VEHICLE ACCIDENT -,12/12/2015 12:33,Totope,Totope,1
5.5666403,-0.3334778,233,"Ogbodjo, Ghana,12/12/2015@12:36",EMS: HEMORRHAGING,12/12/2015 12:36,Weija,Weija,1
5.6037168,-0.1869644,233,"Okpoi Gonno, Accra, Ghana,12/12/2015@12:39",EMS: ASSAULT VICTIM,12/12/2015 12:39,Accra,Accra,1
5.6760396,-0.0175138,233,"230102, Ilobu, Nigeria,12/12/2015@12:40",EMS: VEHICLE ACCIDENT,12/12/2015 12:40,Tema,Community 9,1
5.6087022,-0.2164185,233,"Onyachia, Ghana,12/12/2015@12:37",Traffic: VEHICLE ACCIDENT -,12/12/2015 12:37,Accra,Ablemkpe,1
5.614376,-0.2275441,233,"Oshiyie, Ghana,12/12/2015@12:42",Traffic: VEHICLE ACCIDENT -,12/12/2015 12:42,Accra,Abofu,1
5.6037168,-0.1869644,233,"Dr. Busia Hwy, Accra, Ghana,12/12/2015@12:47",Traffic: VEHICLE ACCIDENT -,12/12/2015 12:47,Accra,Accra Central,1
5.578178,-0.2158249,233,"Papasi, Ghana,12/12/2015@12:55",Fire: FIRE ALARM,12/12/2015 12:55,Accra,Accra New Town,1
5.6247125,-0.2037346,233,"Pokoasi, Ghana,12/12/2015@12:53",Traffic: VEHICLE ACCIDENT -,12/12/2015 12:53,Accra,Achimota Forest,1
5.612781,-0.234345,233,"Prampram, Ghana,12/12/2015@12:55",Traffic: VEHICLE ACCIDENT -,12/12/2015 12:55,Achimota,Achimota,1
5.6163571,-0.1432588,233,"Sakaman Bus Stop, Accra, Ghana,12/12/2015@12:58",Traffic: VEHICLE ACCIDENT -,12/12/2015 12:58,Accra,Airport Hills Residential Area,1
5.6061047,-0.1860362,233,"Sakumono, Ghana,12/12/2015@13:10",Traffic: VEHICLE ACCIDENT -,12/12/2015 13:10,Accra,Airport Residential Area,1
5.6130238,-0.2399401,233,"Santeo, Ghana,12/12/2015@13:07",EMS: SUBJECT IN PAIN,12/12/2015 13:07,Akweteyman,Akweteyman,1
5.5987311,-0.2170443,233,"PMHM+3WQ, Amasaman, Ghana,12/12/2015@13:11",Traffic: VEHICLE ACCIDENT -,12/12/2015 13:11,Accra,Alajo,1
5.6281001,-0.2314162,233,"Sege, Ghana,12/12/2015@13:17",EMS: VEHICLE ACCIDENT,12/12/2015 13:17,Accra,Algoboshie,1
5.5682553,-0.2068827,233,"Sowutoum, Ghana,12/12/2015@13:16",EMS: HEAD INJURY,12/12/2015 13:16,Accra,Asylum Down,1
5.6037168,-0.1869644,233,"Wuonyi, Ghana,12/12/2015@13:20",Fire: VEHICLE ACCIDENT,12/12/2015 13:20,Accra,Awudome Estate,1
5.5391837,-0.2503876,233,"Kwambla Gon, Tema, Ghana,12/12/2015@13:18",EMS: NAUSEA/VOMITING,12/12/2015 13:18,Accra,Banana Inn,1
5.5787409,-0.251443,233,"Tema New Town, Tema, Ghana,12/12/2015@13:22",EMS: VEHICLE ACCIDENT,12/12/2015 13:22,Accra,Bubiashie,1
5.5958462,-0.1518394,233,"Tema, Ghana,12/12/2015@13:22",Traffic: VEHICLE ACCIDENT -,12/12/2015 13:22,Accra,Burma Camp,1
5.5767652,-0.1784836,233,"Tetegu Rd, Ghana,12/12/2015@13:22",Traffic: VEHICLE ACCIDENT -,12/12/2015 13:22,Accra,Cantonments,1
5.5322991,-0.2475401,233,"Totope, Ghana,12/12/2015@13:23",Traffic: VEHICLE ACCIDENT -,12/12/2015 13:23,Accra,Chorkor,1
5.6346309,-0.2214085,233,"Weija, Ghana,12/12/2015@13:26",Fire: VEHICLE ACCIDENT,12/12/2015 13:26,Accra,Christian Village,1
5.5427477,-0.2565425,233,"Accra, Ghana,12/12/2015@13:31",EMS: VEHICLE ACCIDENT,12/12/2015 13:31,Accra,Dansoman,1
5.5905595,-0.2502697,233,"Community 9, Tema, Ghana,12/12/2015@13:32",Traffic: VEHICLE ACCIDENT -,12/12/2015 13:32,Darkuman,Darkuman,1
5.6141232,-0.1956471,233,"Abelemkpe, Accra, Ghana,12/12/2015@13:32",EMS: RESPIRATORY EMERGENCY,12/12/2015 13:32,Accra,Dzorwulu Residential Area,1
5.6141232,-0.1956471,233,"Abofu Park, Accra, Ghana,12/12/2015@13:33",Fire: S/B AT HELICOPTER LANDING,12/12/2015 13:33,Accra,East Dzorwulu Residential Area,1
5.6358281,-0.1613592,233,"Accra, Ghana,12/12/2015@13:43",Fire: APPLIANCE FIRE,12/12/2015 13:43,Accra,East Legon Residential Area,1
5.5831636,-0.2301488,233,"Accra New Town, Accra, Ghana,12/12/2015@13:43",Traffic: VEHICLE ACCIDENT -,12/12/2015 13:43,Accra,Greda Estates,1
5.6037379,-0.1869579,233,"Achimota Forest, Achimota College Rd, Accra, Ghana,12/12/2015@13:43",Traffic: VEHICLE ACCIDENT -,12/12/2015 13:43,Accra,Kanda Estate,1
5.576118,-0.2444038,233,"Achimota, Ghana,12/12/2015@13:44",EMS: CARDIAC EMERGENCY,12/12/2015 13:44,Accra,Kaneshie,1
5.5758396,-0.2086447,233,"Airport Hills, Accra, Ghana,12/12/2015@13:51",EMS: FALL VICTIM,12/12/2015 13:51,Accra,Kokomlemle,1
5.536607,-0.2264091,233,"Airport Residential Area, Accra, Ghana,12/12/2015@13:56",EMS: RESPIRATORY EMERGENCY,12/12/2015 13:56,Accra,Korle Bu Hospital,1
5.5557674,-0.1962684,233,"Akweteyman, Ghana,12/12/2015@13:58",EMS: SEIZURES,12/12/2015 13:58,Accra,Korle Dudor,1
5.5328145,-0.2268113,233,"Alajo, Accra, Ghana,12/12/2015@14:00",EMS: FALL VICTIM,12/12/2015 14:00,Accra,Korle Gonno,1
5.536425,-0.2200696,233,"Alogboshie St, Accra, Ghana,12/12/2015@14:01",EMS: GENERAL WEAKNESS,12/12/2015 14:01,Accra,Korle Lagoon Area,1
5.5997705,-0.2045388,233,"4000 Truxel Rd #3, Sacramento, CA 95834, USA,12/12/2015@14:06",EMS: SUBJECT IN PAIN,12/12/2015 14:06,Accra,Kotobabi,1
5.6422331,-0.164005,233,"Asylum Down, Accra, Ghana,12/12/2015@14:13",Traffic: VEHICLE ACCIDENT -,12/12/2015 14:13,Accra,La Bawalshie,1
5.5532782,-0.24014,233,"Accra, Ghana,12/12/2015@14:16",Traffic: VEHICLE ACCIDENT -,12/12/2015 14:16,Accra,Lartebiokorshi,1
5.5532782,-0.24014,233,"GPQX+MRH, Chemu Rd, Accra, Ghana,12/12/2015@14:16",EMS: CHOKING,12/12/2015 14:16,Accra,Larterbiokorshie,1
5.5770604,-0.2871621,233,"Bubiashie, Accra, Ghana,12/12/2015@14:16",Fire: CARBON MONOXIDE DETECTOR,12/12/2015 14:16,Mallam,Mallam,1
5.5945193,-0.1975081,233,"Burma Camp, Accra, Ghana,12/12/2015@14:17",Traffic: VEHICLE ACCIDENT -,12/12/2015 14:17,Accra,Mamobi,1
5.5367445,-0.2420576,233,"Cantonments, Accra, Ghana,12/12/2015@14:22",Traffic: VEHICLE ACCIDENT -,12/12/2015 14:22,Accra,Mamprobi,1
5.5661142,-0.2476103,233,"Chorkor, Accra, Ghana,12/12/2015@14:30",Traffic: VEHICLE ACCIDENT -,12/12/2015 14:30,Accra,Mataheko,1
5.6358281,-0.1613592,233,"Christian Village, Accra, Ghana,12/12/2015@14:28",Traffic: VEHICLE ACCIDENT -,12/12/2015 14:28,Accra,Mepeasm,1
5.612781,-0.234345,233,"Dansoman, Accra, Ghana,12/12/2015@14:31",Traffic: VEHICLE ACCIDENT -,12/12/2015 14:31,Achimota,New Achimota,1
5.5367445,-0.2420576,233,"Darkuman, Ghana,12/12/2015@14:34",EMS: SYNCOPAL EPISODE,12/12/2015 14:34,Accra,New Mamprobi,1
5.5820038,-0.1984173,233,"Dzorwulu, Accra, Ghana,12/12/2015@14:33",Traffic: VEHICLE ACCIDENT -,12/12/2015 14:33,Accra,Nima,1
5.6207935,-0.1928216,233,"Dzorwulu, Accra, Ghana,12/12/2015@14:36",EMS: VEHICLE ACCIDENT,12/12/2015 14:36,Accra,North Dzorwulu Residential Area,1
5.5826925,-0.224065,233,"East Legon, Accra, Ghana,12/12/2015@14:41",Traffic: VEHICLE ACCIDENT -,12/12/2015 14:41,Accra,North Industrial Area,1
5.5862973,-0.2419606,233,"Greda Estate 4th avenue, Accra, Ghana,12/12/2015@14:47",Traffic: VEHICLE ACCIDENT -,12/12/2015 14:47,Accra,North Kaneshie,1
5.570823,-0.1764971,233,"Kanda Estates, HRR7+JM7, Sunyani Ave, Accra, Ghana,12/12/2015@14:46",EMS: ABDOMINAL PAINS,12/12/2015 14:46,Accra,North Labone Estate,1
5.5804557,-0.2633237,233,"Kaneshie, Accra, Ghana,12/12/2015@14:50",Fire: VEHICLE FIRE,12/12/2015 14:50,Accra,North Ordokor,1
5.5609644,-0.1729837,233,"Kokomlemle, Accra, Ghana,12/12/2015@14:52",Traffic: VEHICLE FIRE -,12/12/2015 14:52,Accra,Nyaniba Estates,1
5.5832277,-0.2553661,233,"Guggisberg Ave, Accra, Ghana,12/12/2015@15:01",Traffic: VEHICLE ACCIDENT -,12/12/2015 15:01,Accra,Official Town,1
5.6397935,-0.17815,233,"Asafo Atse Lankin street, Opposite Akwei Memorial School, Accra 12345, Ghana,12/12/2015@15:01",EMS: CARDIAC EMERGENCY,12/12/2015 15:01,Accra,Okponglo,1
5.5427477,-0.2565425,233,"Korle Gonno, Accra, Ghana,12/12/2015@15:02",Traffic: VEHICLE ACCIDENT -,12/12/2015 15:02,Accra,Old Damsoman,1
5.5459103,-0.2854839,233,"Korle Lagoon, Accra, Ghana,12/12/2015@15:03",EMS: SUBJECT IN PAIN,12/12/2015 15:03,Accra,Pambros Salt Ponds,1
5.6418074,-0.2279838,233,"Kotobabi, Accra, Ghana,12/12/2015@15:04",EMS: CARDIAC EMERGENCY,12/12/2015 15:04,Accra,Parakuo Estates,1
5.5650109,-0.1878856,233,"La-Bawaleshi Rd, Accra, Ghana,12/12/2015@15:03",EMS: FALL VICTIM,12/12/2015 15:03,Accra,Ringway Estate,1
5.5524939,-0.2350201,233,"Lartebiokorshie, Accra, Ghana,12/12/2015@15:20",EMS: FRACTURE,12/12/2015 15:20,Accra,Sabon Zongo,1
5.5577483,-0.2232937,233,"Lartebiokorshie, Accra, Ghana,12/12/2015@15:23",Traffic: VEHICLE ACCIDENT -,12/12/2015 15:23,Accra,South Industrial Area,1
5.556646,-0.1626788,233,"Mallam, Ghana,12/12/2015@15:30",EMS: FALL VICTIM,12/12/2015 15:30,Accra,South La Estate,1
5.5804557,-0.2633237,233,"Maamobi, Accra, Ghana,12/12/2015@15:30",Traffic: DISABLED VEHICLE -,12/12/2015 15:30,Accra,South Ordokor,1
5.6376136,-0.1266064,233,"Mamprobi, Accra, Ghana,12/12/2015@15:30",Fire: FIRE ALARM,12/12/2015 15:30,Accra,Spintex Road,1
5.6326515,-0.0116586,233,"Mataheko, Accra, Ghana,12/12/2015@15:29",Traffic: VEHICLE ACCIDENT -,12/12/2015 15:29,Tema,Tema Community 2,1
5.6221385,-0.0256537,233,"JRPQ+8FJ, Accra, Ghana,12/12/2015@15:26",EMS: RESPIRATORY EMERGENCY,12/12/2015 15:26,Tema,Tema Community 3,1
5.6549971,-0.0081607,233,"Achimota, Ghana,12/12/2015@15:31",Fire: FIRE ALARM,12/12/2015 15:31,Tema,Tema Community Four,1
5.6628858,-0.0104926,233,"Mamprobi, Accra, Ghana,12/12/2015@15:33",Fire: UNKNOWN TYPE FIRE,12/12/2015 15:33,Tema,Tema Community Seven,1
5.6057034,-0.2353967,233,"Nima, Accra, Ghana,12/12/2015@15:39",Traffic: DISABLED VEHICLE -,12/12/2015 15:39,Accra,Tesano,1
5.5831665,-0.1046082,233,"North Dzorwulu, Accra, Ghana,12/12/2015@15:37",Traffic: ROAD OBSTRUCTION -,12/12/2015 15:37,Accra,Teshi Old Town,1
5.5831665,-0.1046082,233,"North Industrial Area, Accra, Ghana,12/12/2015@15:38",Traffic: ROAD OBSTRUCTION -,12/12/2015 15:38,Accra,Teshie Manheam,1
5.5511174,-0.1986458,233,"North Kaneshi, Accra, Ghana,12/12/2015@15:37",EMS: HEAD INJURY,12/12/2015 15:37,Accra,Victoriaborg,1
5.6495001,-0.2100343,233,"Peter Ala Adjetey Ave, Accra, Ghana,12/12/2015@15:45",EMS: RESPIRATORY EMERGENCY,12/12/2015 15:45,Accra,West Legon Residential,1
5.9790583,0.0115067,233,"Odorkor, Accra, Ghana,12/12/2015@15:46",EMS: RESPIRATORY EMERGENCY,12/12/2015 15:46,Agameda,"Agomeda, Dangme West",1
5.9211568,-0.0524919,233,"Nyaniba Estates Park, Osu La Crescent, Accra, Ghana,12/12/2015@15:47",EMS: SYNCOPAL EPISODE,12/12/2015 15:47,Ayikuma,Aiyikuma,1
5.8663218,0.2160006,233,"Owusu kofi, Owusu Kofi St, Accra, Ghana,12/12/2015@15:54",Traffic: DISABLED VEHICLE -,12/12/2015 15:54,Amanakpo,Amanakpo,1
5.9480958,0.2513819,233,"Okponglo Bus Stop, Legon E Rd, Accra, Ghana,12/12/2015@15:55",Traffic: DISABLED VEHICLE -,12/12/2015 15:55,Amechekope,Amechekope,1
5.841036,0.629449,233,"Dansoman, Accra, Ghana,12/12/2015@15:52",Traffic: DISABLED VEHICLE -,12/12/2015 15:52,,Anazome,1
5.7744349,0.6529821,233,"Dr. Busia Hwy, Accra, Ghana,12/12/2015@16:00",Traffic: DISABLED VEHICLE -,12/12/2015 16:00,Ada Foah,Azizanya,1
5.8271406,0.6133111,233,"Parakuo Estates, Accra, Ghana,12/12/2015@15:57",EMS: VEHICLE ACCIDENT,12/12/2015 15:57,Big Ada,Big Ada,1
5.8432104,-0.0406506,233,"7 Asafoatse Ankaa Rd, Accra, Ghana,12/12/2015@15:58",Traffic: DISABLED VEHICLE -,12/12/2015 15:58,Bogwabo,Bogwabo,1
5.8127489,0.2001432,233,"Sabon Zango, Accra, Ghana,12/12/2015@15:59",Traffic: DISABLED VEHICLE -,12/12/2015 15:59,Buaku,Buaku,1
5.9998867,0.103721,233,"South Industrial Area, Accra, Ghana,12/12/2015@16:00",Traffic: DISABLED VEHICLE -,12/12/2015 16:00,Chondawnya,Chondawnya,1
5.9885704,0.3126364,233,"HR4P+MW4, Second Otswe St, Accra, Ghana,12/12/2015@16:07",Traffic: VEHICLE ACCIDENT -,12/12/2015 16:07,Dedukope,Dedukope,1
5.8828665,-0.098043,233,"Odorkor, Accra, Ghana,12/12/2015@16:06",EMS: CARDIAC EMERGENCY,12/12/2015 16:06,Dodowa,Dodowa,1
6.050528,0.2600168,233,"Spintex Road, Accra, Ghana,12/12/2015@16:08",EMS: OVERDOSE,12/12/2015 16:08,Fawkpi,Fawkpi,1
5.9937912,0.4499365,233,"Podoku, Tema, Ghana,12/12/2015@16:08",EMS: VEHICLE ACCIDENT,12/12/2015 16:08,Folikope,Folikope,1
5.9751334,0.2710464,233,"Community Three, Tema, Ghana,12/12/2015@16:11",EMS: CARDIAC EMERGENCY,12/12/2015 16:11,,Hwapa,1
6.0925375,0.1953055,233,"Community Four, Tema, Ghana,12/12/2015@16:20",Traffic: VEHICLE ACCIDENT -,12/12/2015 16:20,Asutsuare,Kasunya,1
5.9175487,0.0244125,233,"Community Seven, Tema, Ghana,12/12/2015@16:19",EMS: UNKNOWN MEDICAL EMERGENCY,12/12/2015 16:19,Kordiabe,Kodiabe,1
5.9980556,0.0797222,233,"Tesano, Accra, Ghana,12/12/2015@16:17",EMS: ALTERED MENTAL STATUS,12/12/2015 16:17,,Lawlawvaw,1
5.716667,0.016667,233,"Teshie, Accra, Ghana,12/12/2015@16:24",EMS: UNRESPONSIVE SUBJECT,12/12/2015 16:24,Tema,Milichakpo,1
6.0272362,0.1791263,233,"Teshie, Accra, Ghana,12/12/2015@16:27",Traffic: DISABLED VEHICLE -,12/12/2015 16:27,Osudoku,Osudoku,1
5.8129581,-0.1179155,233,"Victoriaborg, Accra, Ghana,12/12/2015@16:29",Traffic: DISABLED VEHICLE -,12/12/2015 16:29,Oyibi,Oyibi,1
5.8218206,0.214366,233,"West Legon, Accra, Ghana,12/12/2015@16:29",Traffic: DISABLED VEHICLE -,12/12/2015 16:29,,Sagreme,1
5.883333,-0.066667,233,"Agameda, Ghana,12/12/2015@16:28",EMS: RESPIRATORY EMERGENCY,12/12/2015 16:28,,Ziapon,1
7.0211977,-3.0451011,233,"Ayikuma, Ghana,12/12/2015@16:27",Fire: CARBON MONOXIDE DETECTOR,12/12/2015 16:27,Ankrankwanta,Ankrankwanta ,1
6.8217,-3.0184634,233,"Amanakpo, Ghana,12/12/2015@16:27",Traffic: VEHICLE ACCIDENT -,12/12/2015 16:27,Adabokrom,Adabokrom ,1
6.659532,-3.0926899,233,"Amechekope, Ghana,12/12/2015@16:35",Traffic: VEHICLE ACCIDENT -,12/12/2015 16:35,Debiso,Debiso ,1
6.5433241,-2.9676206,233,"Anazome, Ghana,12/12/2015@16:40",EMS: FALL VICTIM,12/12/2015 16:40,Sefwi Asuontaa,Sefwi Asuontaa ,1
6.7374322,-1.460829,233,"QMF3+Q5H, Ada Foah, Ghana,12/12/2015@16:45",EMS: UNCONSCIOUS SUBJECT,12/12/2015 16:45,Ejisu,Kawkrom,1
6.4245881,-2.7058431,233,"Big Ada, Ghana,12/12/2015@16:41",EMS: HEAD INJURY,12/12/2015 16:41,Kojina,Kojina ,1
6.3332945,-2.8333066,233,"Bogwabo, Ghana,12/12/2015@16:42",Traffic: VEHICLE ACCIDENT -,12/12/2015 16:42,Juaboso,Juaboso ,1
6.2158621,-2.4851463,233,"Buaku, Ghana,12/12/2015@16:40",Traffic: VEHICLE ACCIDENT -,12/12/2015 16:40,Wiawso,Wiawso ,1
6.6959862,-2.5532272,233,"Chondawnya, Ghana,12/12/2015@16:45",EMS: FALL VICTIM,12/12/2015 16:45,Akrodie,Akrodie ,1
6.8018106,-2.514842,233,"Dedukope, Ghana,12/12/2015@16:41",Traffic: VEHICLE ACCIDENT -,12/12/2015 16:41,Goaso,Goaso ,1
6.9338999,-2.3542193,233,"Dodowa, Ghana,12/12/2015@16:46",Fire: VEHICLE ACCIDENT,12/12/2015 16:46,Hwidiem,Kenyasi Hwidiem,1
6.4610857,-2.3172324,233,"Fawkpi, Ghana,12/12/2015@16:46",EMS: UNKNOWN MEDICAL EMERGENCY,12/12/2015 16:46,Bibiani,Bibiani ,1
6.1980265,-2.3246274,233,"Folikope, Ghana,12/12/2015@16:55",Fire: FIRE ALARM,12/12/2015 16:55,Sefwi Bekwai,Sefwi Bekwai ,1
6.5978957,-2.118023,233,"Hwapa, Ghana,12/12/2015@16:53",Fire: VEHICLE FIRE,12/12/2015 16:53,Nyinahin,Nyinahin ,1
6.6642095,-1.8169492,233,"Asutsuare, Ghana,12/12/2015@16:52",Traffic: VEHICLE FIRE -,12/12/2015 16:52,Nkawie,Nkawie ,1
6.4532257,-1.5838477,233,"Kordiabe, Ghana,12/12/2015@17:00",Fire: FIRE ALARM,12/12/2015 17:00,Bekwai,Bekwai ,1
5.0473822,-2.4727788,233,"Lawlawvaw, Ghana,12/12/2015@17:05",Traffic: VEHICLE ACCIDENT -,12/12/2015 17:05,Aiyinase,Aiyinase ,1
4.8665091,-2.240888,233,"Mlichakpo, Tema, Ghana,12/12/2015@17:04",EMS: CVA/STROKE,12/12/2015 17:04,Axim,Axim ,1
5.1053378,-1.3421032,233,"Osudoku, Ghana,12/12/2015@17:05",EMS: UNKNOWN MEDICAL EMERGENCY,12/12/2015 17:05,Elmina,Elmina ,1
5.5740623,-2.0126276,233,"Oyibi, Ghana,12/12/2015@17:11",EMS: RESPIRATORY EMERGENCY,12/12/2015 17:11,Bogoso,Bogoso ,1
5.4742402,-2.0665197,233,"Sagreme, Ghana,12/12/2015@17:13",EMS: ASSAULT VICTIM,12/12/2015 17:13,Prestea- Huni Valley District,Prestea-Huni valley District ,1
5.301832,-1.9930466,233,"Ziapon, Ghana,12/12/2015@17:18",EMS: RESPIRATORY EMERGENCY,12/12/2015 17:18,Tarkwa,Tarkwa ,1
6.9771155,-2.2950547,233,"Ankrankwanta, Ghana,12/12/2015@17:16",EMS: UNKNOWN MEDICAL EMERGENCY,12/12/2015 17:16,Akyerensua,Akyerensua ,1
6.8637381,-2.4480536,233,"Adabokrom, Ghana,12/12/2015@17:21",EMS: GENERAL WEAKNESS,12/12/2015 17:21,Nkaseim,Nkaseim ,1
6.6925346,-2.4431102,233,"Debiso, Ghana,12/12/2015@17:21",EMS: UNKNOWN MEDICAL EMERGENCY,12/12/2015 17:21,Kukuom,Kukuom ,1
6.6512241,-2.424577,233,"Sefwi Asuontaa, Ghana,12/12/2015@17:31",EMS: HEAD INJURY,12/12/2015 17:31,Nobekaw,Nobekaw ,1
6.6189229,-2.4789622,233,"PGPQ+XMF Anita Hotel Ltd, Ejisu, Ghana,12/12/2015@17:34",Traffic: VEHICLE ACCIDENT -,12/12/2015 17:34,Kwapon,Kwapon ,1
6.6224415,-2.3012141,233,"Kojina, Ghana,12/12/2015@17:37",EMS: ASSAULT VICTIM,12/12/2015 17:37,Sreso Tinpom,Sreso Tinpom ,1
6.518235,-2.3431201,233,"Juaboso, Ghana,12/12/2015@17:38",Traffic: VEHICLE ACCIDENT -,12/12/2015 17:38,Dumase,Dumase ,1
6.4610857,-2.3172324,233,"Wiawso, Ghana,12/12/2015@17:37",EMS: VEHICLE ACCIDENT,12/12/2015 17:37,Bibiani,Bibiani ,1
6.4225531,-2.303678,233,"Akrodie, Ghana,12/12/2015@17:46",EMS: VEHICLE ACCIDENT,12/12/2015 17:46,Kwamekrom,Kwamekrom ,1
6.4007084,-2.4116699,233,"Goaso, Ghana,12/12/2015@17:46",Traffic: VEHICLE ACCIDENT -,12/12/2015 17:46,Wuramumuso,Wuramumuso ,1
6.6883018,-1.6187039,233,"Hwidiem, Ghana,12/12/2015@17:52",Traffic: VEHICLE ACCIDENT -,12/12/2015 17:52,Kumasi,Asafo ,1
6.3206046,-2.5037039,233,"Bibiani, Ghana,12/12/2015@17:55",Traffic: VEHICLE ACCIDENT -,12/12/2015 17:55,Punikrom,Punikrom,1
6.7613043,-2.5866855,233,"Sefwi Bekwai, Ghana,12/12/2015@17:56",Fire: VEHICLE ACCIDENT,12/12/2015 17:56,Ayomfo,Ayomfo ,1
7.0851672,-2.1671288,233,"Nyinahin, Ghana,12/12/2015@17:56",Traffic: VEHICLE ACCIDENT -,12/12/2015 17:56,Bomaa,Bomaa ,1
7.0072367,-2.1695855,233,"Nkawie, Ghana,12/12/2015@17:56",EMS: CARDIAC EMERGENCY,12/12/2015 17:56,Tepa,Tepa ,1
7.0857832,-2.029768,233,"Bekwai, Ghana,12/12/2015@18:15",Traffic: VEHICLE ACCIDENT -,12/12/2015 18:15,Bechem,Bechem ,1
7.0851672,-2.1671288,233,"Aiyinase, Ghana,12/12/2015@18:11",Traffic: VEHICLE ACCIDENT -,12/12/2015 18:11,Bomaa,Bomaa ,1
7.1796355,-2.1008486,233,"Axim, Ghana,12/12/2015@18:20",EMS: ASSAULT VICTIM,12/12/2015 18:20,Duayaw Nkwanta,Duayaw Nkwanta ,1
7.0524369,-1.9303,233,"Elmina, Ghana,12/12/2015@18:18",EMS: OVERDOSE,12/12/2015 18:18,Domeabra,Domeabra ,1
7.0147227,-1.9942702,233,"Bogoso, Ghana,12/12/2015@18:16",EMS: DIZZINESS,12/12/2015 18:16,Nyamebekyere,Nyamebekyere ,1
6.9085682,-2.029768,233,"Prestea- Huni Valley District, Ghana,12/12/2015@18:25",EMS: LACERATIONS,12/12/2015 18:25,Wioso,Wioso ,1
6.8784526,-1.8525626,233,"Tarkwa, Ghana,12/12/2015@18:23",Traffic: DISABLED VEHICLE -,12/12/2015 18:23,Adugyama,Adugyama ,1
6.8181278,-1.8635409,233,"Akyerensua, Ghana,12/12/2015@18:26",Traffic: VEHICLE ACCIDENT -,12/12/2015 18:26,Mankranso,Mankraso ,1
6.8481245,-1.7198215,233,"Nkaseim, Ghana,12/12/2015@18:28",Traffic: VEHICLE ACCIDENT -,12/12/2015 18:28,Barekese,Barekese ,1
7.0389413,-1.6347878,233,"Kukuom, Ghana,12/12/2015@18:26",EMS: FALL VICTIM,12/12/2015 18:26,Tetrem,Tetrem ,1
7.2051831,-1.7904042,233,"Nobekaw, Ghana,12/12/2015@18:40",Fire: FIRE ALARM,12/12/2015 18:40,Nikwaakwaa,Nikwaakwaa ,1
7.2663478,-1.8275668,233,"Kwapon, Ghana,12/12/2015@18:38",Traffic: VEHICLE ACCIDENT -,12/12/2015 18:38,Asuoso,Asuoso ,1
7.2334119,-1.8062402,233,"Sreso Tinpom, Ghana,12/12/2015@18:38",Traffic: VEHICLE ACCIDENT -,12/12/2015 18:38,Asempaneye,Asempaneye,1
7.1403851,-1.4876082,233,"Dumase, Ghana,12/12/2015@18:43",Fire: FIRE ALARM,12/12/2015 18:43,Kofiase,Kofiase ,1
7.3926839,-1.4048249,233,"Bibiani, Ghana,12/12/2015@18:49",Traffic: ROAD OBSTRUCTION -,12/12/2015 18:49,,Sekodumase ,1
7.3399999,-1.5147561,233,"Kwamekrom, Ghana,12/12/2015@18:47",EMS: CARDIAC EMERGENCY,12/12/2015 18:47,Afrante,Afrante ,1
7.1403851,-1.4876082,233,"Wuramumuso, Ghana,12/12/2015@18:49",EMS: VEHICLE ACCIDENT,12/12/2015 18:49,Kofiase,Kofiase,1
7.0554574,-1.5184418,233,"Asafo, Kumasi, Ghana,12/12/2015@18:49",Traffic: VEHICLE ACCIDENT -,12/12/2015 18:49,Wiamoase,Wiamoase ,1
7.1944239,-1.3963762,233,"Punikrom, Ghana,12/12/2015@18:50",Traffic: VEHICLE ACCIDENT -,12/12/2015 18:50,Bosomkyekye,Bosomkyekye,1
7.2536992,-1.4012039,233,"Ayomfo, Ghana,12/12/2015@18:53",Traffic: VEHICLE ACCIDENT -,12/12/2015 18:53,Adidwan,Adidwan ,1
7.4288724,-1.4238551,233,"Bomaa, Ghana,12/12/2015@18:52",Fire: UNKNOWN TYPE FIRE,12/12/2015 18:52,Memimaso,Memimaso,1
7.5420312,-1.2049233,233,"Tepa, Ghana,12/12/2015@18:55",Fire: FIRE ALARM,12/12/2015 18:55,Amantin,Amantin ,1
7.5895788,-1.1508967,233,"Bechem, Ghana,12/12/2015@18:55",Fire: VEHICLE FIRE,12/12/2015 18:55,Akokua,Akokua ,1
7.6518188,-1.1917104,233,"Bomaa, Ghana,12/12/2015@18:56",Traffic: VEHICLE FIRE -,12/12/2015 18:56,Fanfao,Fanfao ,1
7.0919406,-1.2109766,233,"Duayaw Nkwanta, Ghana,12/12/2015@19:04",Traffic: VEHICLE ACCIDENT -,12/12/2015 19:04,Jadiako,Jadiako ,1
7.2231181,-1.1684808,233,"Domeabra, Ghana,12/12/2015@19:05",EMS: RESPIRATORY EMERGENCY,12/12/2015 19:05,Sasebonso,Sasebonso,1
6.966667,-1.15,233,"Nyamebekyere, Ghana,12/12/2015@19:05",Fire: FIRE ALARM,12/12/2015 19:05,Enikawso,Enikawso ,1
6.9755866,-1.272254,233,"Wioso, Ghana,12/12/2015@19:08",EMS: DEHYDRATION,12/12/2015 19:08,Kwaman,Kwaman,1
6.9111632,-1.2770675,233,"Adugyama, Ghana,12/12/2015@19:09",Fire: VEHICLE FIRE,12/12/2015 19:09,Kumawu,Kumawu,1
6.8652504,-1.3951694,233,"Mankranso, Ghana,12/12/2015@19:12",EMS: FALL VICTIM,12/12/2015 19:12,Effiduase,Effiduase ,1
6.7873581,-1.4652217,233,"Barekese, Ghana,12/12/2015@19:12",Traffic: VEHICLE FIRE -,12/12/2015 19:12,Juaben,Juaben ,1
6.7150806,-1.5091172,233,"Tetrem, Ghana,12/12/2015@19:17",EMS: ALTERED MENTAL STATUS,12/12/2015 19:17,Ejisu,Ejisu ,1
6.966667,-1.15,233,"Nikwaakwaa, Ghana,12/12/2015@19:18",EMS: FALL VICTIM,12/12/2015 19:18,Enikawso,Enikawso ,1
7.0642037,-1.1240105,233,"Asuoso, Ghana,12/12/2015@19:20",EMS: ALTERED MENTAL STATUS,12/12/2015 19:20,Drabonso,Drabonso ,1
